datetime,roll_c,roll_m,yaw_c,yaw_m,pitch_c,pitch_m,aspd_m,vx_c,vx_m,vy_c,vy_m,vz_c,vz_m,aspd_error,alt_error,fault
0.0367391109466553,42.3600006103516,15.6513271331787,115,-69.9196472167969,4.81999969482422,13.7238178253174,NaN,NaN,NaN,NaN,NaN,NaN,NaN,NaN,NaN,0
0.104238271713257,41.8499984741211,15.6513271331787,116,-69.9196472167969,6.42999982833862,13.7238178253174,22.3319177120279,-15.9941997528076,10.7620012052411,-0.430770993232727,-17.7351369047894,-1.95872451525176e-15,-17.7351369047894,-733.87368649847,-2.4677592906941,0
0.135319471359253,41.5,15.6513271331787,116,-69.9196472167969,6.46999979019165,13.7238178253174,22.3393611907959,-15.9941997528076,10.930816497184,-0.430770993232727,-17.4045207343149,-1.95872451525176e-15,-17.4045207343149,-733.936096191406,-2.47000002861023,0
0.190727949142456,40.9899978637695,15.6513271331787,117,-69.9196472167969,8.02999973297119,13.7238178253174,22.3398803206339,-15.9941997528076,11.1863082421657,-0.430770993232727,-16.8828971814784,-1.95872451525176e-15,-16.8828971814784,-734.015969789759,-3.06664843016318,0
0.234172344207764,40.6699981689453,15.6513271331787,117,-69.9196472167969,8.05999946594238,13.7238178253174,22.3401641845703,-15.9941997528076,11.3909895123843,-0.430770993232727,-16.4565759980443,-1.95872451525176e-15,-16.4565759980443,-734.016418457031,-3.0699999332428,0
0.281243085861206,40.2099990844727,15.6513271331787,136,-69.9196472167969,6.55999994277954,13.7238178253174,22.2454677834012,-15.9941997528076,11.6172699382853,-0.430770993232727,-15.930687129785,-1.95872451525176e-15,-15.930687129785,-718.520922847224,-3.71750332934856,0
0.334572315216064,39.9300003051758,33.8125534057617,136,-63.3791427612305,6.57999992370605,26.2848510742188,22.1822185516357,-15.9941997528076,11.8353255968245,-0.430770993232727,-15.4116196559873,-1.95872451525176e-15,-15.4116196559873,-718.221862792969,-3.73000001907349,0
0.408502340316772,39.5200004577637,33.8125534057617,136,-63.3791427612305,5.08999967575073,26.2848510742188,22.0292371923396,-15.9941997528076,12.155010306338,-0.430770993232727,-14.6248430099527,-1.95872451525176e-15,-14.6248430099527,-603.878270700984,-4.41679027880861,0
0.449166774749756,39.439998626709,33.8125534057617,136,-63.3791427612305,5.10999965667725,26.2848510742188,22.0234375,-15.9941997528076,12.2408488367153,-0.430770993232727,-14.3902464706097,-1.95872451525176e-15,-14.3902464706097,-603.343872070313,-4.42000007629395,0
0.507142066955566,39.25,33.8125534057617,136,-63.3791427612305,3.59999990463257,26.2848510742188,21.7618274756437,-15.9941997528076,12.4833012246891,-0.430770993232727,-13.6859048682187,-1.95872451525176e-15,-13.6859048682187,-574.484395139377,-5.14783378983873,0
0.570221185684204,39.2000007629395,33.8125534057617,136,-63.3791427612305,3.61999988555908,26.2848510742188,21.7339839935303,-15.9941997528076,12.684597275493,-0.430770993232727,-13.0792747522619,-1.95872451525176e-15,-13.0792747522619,-574.398498535156,-5.15000009536743,0
0.609316825866699,39.189998626709,33.8125534057617,136,-63.3791427612305,2.04999995231628,26.2848510742188,21.3869547374529,-15.9941997528076,12.8014024917849,-0.430770993232727,-12.7350315793158,-1.95872451525176e-15,-12.7350315793158,-536.112087036579,-5.8538737533792,0
0.66283655166626,39.2000007629395,40.0989837646484,136,-54.0639610290527,2.0699999332428,28.6066226959229,21.3423480987549,-15.9941997528076,12.9911133243306,-0.430770993232727,-12.1335192137522,-1.95872451525176e-15,-12.1335192137522,-535.234924316406,-5.86999988555908,0
0.711255311965942,39.25,40.0989837646484,136,-54.0639610290527,0.449999988079071,28.6066226959229,20.9769855597979,-15.9941997528076,13.1283248955902,-0.430770993232727,-11.7076458110732,-1.95872451525176e-15,-11.7076458110732,-495.935346713889,-6.59761245384046,0
0.7776198387146,39.3600006103516,40.0989837646484,136,-54.0639610290527,0.489999979734421,28.6066226959229,20.6072015221515,-15.9941997528076,13.2951119252224,-0.430770993232727,-11.1750524526683,-1.95872451525176e-15,-11.1750524526683,-458.566972402541,-7.31861544804675,0
0.831231117248535,39.5200004577637,40.0989837646484,136,-54.0639610290527,-1.14999997615814,28.6066226959229,20.574951171875,-15.9941997528076,13.4477754214423,-0.430770993232727,-10.6398465833344,-1.95872451525176e-15,-10.6398465833344,-458.495239257813,-7.31999969482422,0
0.88050651550293,39.7199974060059,40.0989837646484,136,-54.0639610290527,-2.82999992370605,28.6066226959229,20.2034134790854,-15.9941997528076,13.5835017173744,-0.430770993232727,-10.1103929729389,-1.95872451525176e-15,-10.1103929729389,-407.736085674006,-8.02814257963447,0
0.934593439102173,39.8699989318848,40.0989837646484,136,-54.0639610290527,-2.80999994277954,28.6066226959229,20.0660285949707,-15.9941997528076,13.6857044848747,-0.430770993232727,-9.69634399138211,-1.95872451525176e-15,-9.69634399138211,-407.602966308594,-8.02999973297119,0
0.970741748809814,40.0299987792969,40.0989837646484,136,-54.0639610290527,-2.78999996185303,28.6066226959229,20.0660285949707,-15.9941997528076,13.7402838121069,-0.430770993232727,-9.47018354683203,-1.95872451525176e-15,-9.47018354683203,-407.602966308594,-8.02999973297119,0
1.01275014877319,40.2000007629395,40.0989837646484,136,-54.0639610290527,-4.56999969482422,28.6066226959229,19.6272097780825,-15.9941997528076,13.8037729460893,-0.430770993232727,-9.19182076702336,-1.95872451525176e-15,-9.19182076702336,-342.417737258369,-8.70825029099332,0
1.06933665275574,40.3699989318848,40.0989837646484,136,-54.0639610290527,-4.53999996185303,28.6066226959229,19.4124946594238,-15.9941997528076,13.8590190990274,-0.430770993232727,-8.92604896149099,-1.95872451525176e-15,-8.92604896149099,-342.249572753906,-8.71000003814697,0
1.08895111083984,40.5599975585938,47.3367881774902,136,-41.6799468994141,-6.36999988555908,25.2235221862793,18.8150272225599,-15.9941997528076,13.9089540615662,-0.430770993232727,-8.67839527860395,-1.95872451525176e-15,-8.67839527860395,-274.99053870081,-9.34378621803262,0
1.14435720443726,40.7399978637695,47.3367881774902,136,-41.6799468994141,-6.29999971389771,25.2235221862793,18.7333106994629,-15.9941997528076,13.9549523842202,-0.430770993232727,-8.41938796834721,-1.95872451525176e-15,-8.41938796834721,-274.331176757813,-9.34999942779541,0
1.20280718803406,41.129997253418,47.3367881774902,136,-41.6799468994141,-8.19999980926514,25.2235221862793,18.1460463302907,-15.9941997528076,14.0282679891501,-0.430770993232727,-8.03735586673609,-1.95872451525176e-15,-8.03735586673609,-183.44243523363,-9.92861854642507,0
1.26001715660095,41.2199974060059,47.3367881774902,136,-41.6799468994141,-8.1899995803833,25.2235221862793,17.5137669518774,-15.9941997528076,14.0948990897317,-0.430770993232727,-7.66270169049123,-1.95872451525176e-15,-7.66270169049123,-183.225540161133,-9.92999935150146,0
1.30050992965698,41.5999984741211,47.3367881774902,136,-41.6799468994141,-10.2399997711182,25.2235221862793,17.0550549932424,-15.9941997528076,14.1360460380294,-0.430770993232727,-7.40590782953664,-1.95872451525176e-15,-7.40590782953664,-102.26709724952,-10.4492968197035,0
1.34338927268982,41.7000007629395,47.3367881774902,136,-41.6799468994141,-10.2299995422363,25.2235221862793,17.0115737915039,-15.9941997528076,14.1564172134285,-0.430770993232727,-7.28061613314717,-1.95872451525176e-15,-7.28061613314717,-102.157501220703,-10.4499998092651,0
1.3903272151947,41.9799995422363,47.3367881774902,136,-41.6799468994141,-12.3599996566772,25.2235221862793,16.4619034858088,-15.9941997528076,14.2198382258754,-0.430770993232727,-6.94979981580573,-1.95872451525176e-15,-6.94979981580573,-45.0681620851497,-10.8983117743222,0
1.44494080543518,42.1699981689453,47.3367881774902,136,-41.6799468994141,-12.3599996566772,25.2235221862793,16.4257965087891,-15.9941997528076,14.2641080117288,-0.430770993232727,-6.72716448334104,-1.95872451525176e-15,-6.72716448334104,-43.5797691345215,-10.9099998474121,0
1.50494360923767,42.5400009155273,52.3362922668457,136,-32.1081619262695,-14.6300001144409,18.792444229126,15.8690647392759,-15.9941997528076,14.3233868947164,-0.430770993232727,-6.2723968370979,-1.95872451525176e-15,-6.2723968370979,13.1011525154451,-11.3093481723257,0
1.53039622306824,42.6399993896484,52.3362922668457,136,-32.1081619262695,-14.6300001144409,18.792444229126,15.8438692092896,-15.9941997528076,14.3379277473135,-0.430770993232727,-6.1383676073205,-1.95872451525176e-15,-6.1383676073205,14.6129608154297,-11.3199996948242,0
1.58139157295227,42.9300003051758,52.3362922668457,136,-32.1081619262695,-15.3399991989136,18.792444229126,15.4639567134185,-15.9941997528076,14.3664293560196,-0.430770993232727,-5.88886539203451,-1.95872451525176e-15,-5.88886539203451,58.3746467944166,-11.6538324640963,0
1.65805983543396,43.2000007629395,52.3362922668457,136,-32.1081619262695,-15.3399991989136,18.792444229126,15.3981676101685,-15.9941997528076,14.385359782409,-0.430770993232727,-5.59766689048041,-1.95872451525176e-15,-5.59766689048041,59.1831207275391,-11.6599998474121,0
1.70450711250305,43.4699974060059,52.3362922668457,136,-32.1081619262695,-15.3699998855591,18.792444229126,15.0370923943758,-15.9941997528076,14.4049875182971,-0.430770993232727,-5.32359123056723,-1.95872451525176e-15,-5.32359123056723,96.4534407885258,-11.9178403578114,0
1.74842548370361,43.629997253418,52.2380218505859,136,-26.5185585021973,-15.4099998474121,12.8959951400757,15.0078887939453,-15.9941997528076,14.4276522303949,-0.430770993232727,-5.11253884764703,-1.95872451525176e-15,-5.11253884764703,98.2109985351563,-11.9299993515015,0
1.84856367111206,44.0099983215332,52.2380218505859,136,-26.5185585021973,-15.5,12.8959951400757,14.6610638731088,-15.9941997528076,14.4826001382286,-0.430770993232727,-4.62739114124092,-1.95872451525176e-15,-4.62739114124092,134.560740264891,-12.1498096940167,0
1.90469551086426,44.1399993896484,52.2380218505859,136,-26.5185585021973,-15.4799995422363,12.8959951400757,14.3329174886836,-15.9941997528076,14.5008912690084,-0.430770993232727,-4.42428008456605,-1.95872451525176e-15,-4.42428008456605,167.058047024898,-12.296699517887,0
1.93495750427246,44.2700004577637,52.2380218505859,136,-26.5185585021973,-15.4399995803833,12.8959951400757,14.3121137619019,-15.9941997528076,14.5191450345964,-0.430770993232727,-4.24463480437706,-1.95872451525176e-15,-4.24463480437706,167.788513183594,-12.3000001907349,0
2.05368804931641,44.5499992370605,52.2380218505859,136,-26.5185585021973,-15.3899993896484,12.8959951400757,14.1139201496217,-15.9941997528076,14.5892084003824,-0.430770993232727,-3.70053941699378,-1.95872451525176e-15,-3.70053941699378,189.908305602986,-12.3899710087134,0
2.11001443862915,44.6499977111816,52.0970993041992,136,-19.558744430542,-15.4099998474121,5.2208685874939,13.9232453694394,-15.9941997528076,14.6344194487048,-0.430770993232727,-3.34859883235028,-1.95872451525176e-15,-3.34859883235028,207.347149931548,-12.4199459147296,0
2.1497950553894,44.7000007629395,52.0970993041992,136,-19.558744430542,-15.4299993515015,5.2208685874939,13.9162120819092,-15.9941997528076,14.6617676404051,-0.430770993232727,-3.1591032895812,-1.95872451525176e-15,-3.1591032895812,207.378677368164,-12.4200000762939,0
2.20244693756104,44.7399978637695,52.0970993041992,136,-19.558744430542,-15.4499998092651,5.2208685874939,13.805464071263,-15.9941997528076,14.6948379527264,-0.430770993232727,-2.94888651714981,-1.95872451525176e-15,-2.94888651714981,218.484243476806,-12.4000630776226,0
2.22270965576172,44.7599983215332,52.0970993041992,136,-19.558744430542,-15.4799995422363,5.2208685874939,13.8048028945923,-15.9941997528076,14.724028829508,-0.430770993232727,-2.79326835225615,-1.95872451525176e-15,-2.79326835225615,218.519592285156,-12.3999996185303,0
2.29296326637268,44.7700004577637,52.0970993041992,136,-19.558744430542,-15.5099992752075,5.2208685874939,13.5848330593855,-15.9941997528076,14.7750346866611,-0.430770993232727,-2.42409400709488,-1.95872451525176e-15,-2.42409400709488,242.957001468835,-12.3208952858523,0
2.34153890609741,44.7700004577637,52.0970993041992,136,-19.558744430542,-15.5199995040894,5.2208685874939,13.5576620101929,-15.9941997528076,14.7956667714595,-0.430770993232727,-2.28825839251872,-1.95872451525176e-15,-2.28825839251872,243.233673095703,-12.3199996948242,0
2.40920877456665,44.7199974060059,52.0970993041992,136,-19.558744430542,-15.539999961853,5.2208685874939,13.4513181614655,-15.9941997528076,14.8512115462695,-0.430770993232727,-1.94454430798881,-1.95872451525176e-15,-1.94454430798881,254.221687982082,-12.1802920051244,0
2.4670832157135,44.6800003051758,51.4540901184082,136,-9.56678295135498,-15.5799999237061,-3.76001453399658,13.4475517272949,-15.9941997528076,14.8770194544003,-0.430770993232727,-1.75999728862259,-1.95872451525176e-15,-1.75999728862259,254.244705200195,-12.1799993515015,0
2.50414776802063,44.5999984741211,51.4540901184082,136,-9.56678295135498,-15.6899995803833,-3.76001453399658,13.3221001921915,-15.9941997528076,14.9112209052552,-0.430770993232727,-1.50753747628243,-1.95872451525176e-15,-1.50753747628243,268.869528094503,-11.9806722358911,0
2.55800175666809,44.5399971008301,51.4540901184082,136,-9.56678295135498,-15.789999961853,-3.76001453399658,13.3008098602295,-15.9941997528076,14.9452907263319,-0.430770993232727,-1.29610611427809,-1.95872451525176e-15,-1.29610611427809,268.918884277344,-11.9799995422363,0
2.61117362976074,44.439998626709,51.4540901184082,136,-9.56678295135498,-15.960000038147,-3.76001453399658,13.2968237828178,-15.9941997528076,15.0058130208313,-0.430770993232727,-0.999503112174769,-1.95872451525176e-15,-0.999503112174769,269.341205774631,-11.7307087434342,0
2.65756130218506,44.3699989318848,51.4540901184082,136,-9.56678295135498,-16.0799999237061,-3.76001453399658,13.2965745925903,-15.9941997528076,15.0401926551851,-0.430770993232727,-0.777760017138466,-1.95872451525176e-15,-0.777760017138466,269.342407226563,-11.7299995422363,0
2.70864653587341,44.25,51.4540901184082,136,-9.56678295135498,-16.3099994659424,-3.76001453399658,13.2632071178934,-15.9941997528076,15.0939152437052,-0.430770993232727,-0.437907541396299,-1.95872451525176e-15,-0.437907541396299,272.776846625778,-11.4119984214091,0
2.73215103149414,44.2099990844727,51.4540901184082,136,-9.56678295135498,-16.3899993896484,-3.76001453399658,13.2620143890381,-15.9941997528076,15.1097574014628,-0.430770993232727,-0.329644339524111,-1.95872451525176e-15,-0.329644339524111,272.798431396484,-11.4099998474121,0
2.78882145881653,44.0699996948242,51.4540901184082,136,-9.56678295135498,-16.6299991607666,-3.76001453399658,13.6084618948499,-15.9941997528076,15.165105160782,-0.430770993232727,0.052470346900067,-1.95872451525176e-15,0.052470346900067,238.137739915944,-11.0605073401143,0
2.84370374679565,43.9799995422363,51.4540901184082,136,-9.56678295135498,-16.8099994659424,-3.76001453399658,13.6091251373291,-15.9941997528076,15.1948923592476,-0.430770993232727,0.288505786160133,-1.95872451525176e-15,0.288505786160133,238.087371826172,-11.0599994659424,0
2.88399910926819,43.8299980163574,47.257926940918,136,4.05006170272827,-17.1000003814697,-11.5263328552246,13.9750896556645,-15.9941997528076,15.2354734425812,-0.430770993232727,0.670632248190095,-1.95872451525176e-15,0.670632248190095,199.23653861122,-10.6603467075723,0
2.94520378112793,43.7399978637695,47.257926940918,136,4.05006170272827,-17.2799987792969,-11.5263328552246,13.9979705810547,-15.9941997528076,15.2645434720044,-0.430770993232727,0.925232021856175,-1.95872451525176e-15,0.925232021856175,199.202819824219,-10.6599998474121,0
2.9705765247345,43.6499977111816,47.257926940918,136,4.05006170272827,-17.4699993133545,-11.5263328552246,14.1379348627758,-15.9941997528076,15.2888272693458,-0.430770993232727,1.14121394116763,-1.95872451525176e-15,1.14121394116763,199.202819824219,-10.6599998474121,0
3.04249334335327,43.4899978637695,47.257926940918,136,4.05006170272827,-17.8699989318848,-11.5263328552246,14.5034919322414,-15.9941997528076,15.3373840959333,-0.430770993232727,1.70686739241877,-1.95872451525176e-15,1.70686739241877,160.694776404281,-10.2309037341572,0
3.10042834281921,43.4199981689453,47.257926940918,136,4.05006170272827,-18.0399990081787,-11.5263328552246,14.6998815705249,-15.9941997528076,15.3526090188751,-0.430770993232727,2.06080170571182,-1.95872451525176e-15,2.06080170571182,127.363737132041,-9.76130364991321,0
3.12525725364685,43.3499984741211,47.257926940918,136,4.05006170272827,-18.1999988555908,-11.5263328552246,14.7172861099243,-15.9941997528076,15.3548168920359,-0.430770993232727,2.34369356702592,-1.95872451525176e-15,2.34369356702592,127.271270751953,-9.76000022888184,0
3.16889190673828,43.2900009155273,47.257926940918,136,4.05006170272827,-18.3400001525879,-11.5263328552246,14.7172861099243,-15.9941997528076,15.3519933556772,-0.430770993232727,2.67085638383335,-1.95872451525176e-15,2.67085638383335,127.271270751953,-9.76000022888184,0
3.21191024780273,43.25,47.257926940918,136,4.05006170272827,-18.4599990844727,-11.5263328552246,14.8584604405151,-15.9941997528076,15.3549981522404,-0.430770993232727,2.98951227195118,-1.95872451525176e-15,2.98951227195118,112.295604409315,-9.27145165722717,0
3.28185391426086,43.2000007629395,47.257926940918,136,4.05006170272827,-18.5900001525879,-11.5263328552246,14.8674879074097,-15.9941997528076,15.3182309685228,-0.430770993232727,3.46501175551997,-1.95872451525176e-15,3.46501175551997,112.251091003418,-9.26999950408936,0
3.30599904060364,43.1800003051758,41.7355766296387,136,19.8364791870117,-18.1800003051758,-15.5167436599731,14.8927495336747,-15.9941997528076,15.2910046462387,-0.430770993232727,3.75345612262667,-1.95872451525176e-15,3.75345612262667,109.38828622855,-8.75317265376085,0
3.34983897209167,43.1699981689453,41.7355766296387,136,19.8364791870117,-18.1800003051758,-15.5167436599731,14.8962917327881,-15.9941997528076,15.2607564386264,-0.430770993232727,4.08451540653076,-1.95872451525176e-15,4.08451540653076,109.370712280273,-8.75,0
3.38540196418762,43.1699981689453,41.7355766296387,136,19.8364791870117,-16.8899993896484,-15.5167436599731,14.9497203085413,-15.9941997528076,15.2162522957836,-0.430770993232727,4.41387046260164,-1.95872451525176e-15,4.41387046260164,103.833656173983,-8.23361183388478,0
3.44593405723572,43.189998626709,41.7355766296387,136,19.8364791870117,-16.8699989318848,-15.5167436599731,14.9541940689087,-15.9941997528076,15.1267458572629,-0.430770993232727,4.9199207247763,-1.95872451525176e-15,4.9199207247763,103.580474853516,-8.21000003814697,0
3.49594569206238,43.2199974060059,41.7355766296387,136,19.8364791870117,-15.7399997711182,-15.5167436599731,14.9799199958676,-15.9941997528076,15.0535830113115,-0.430770993232727,5.29667497387773,-1.95872451525176e-15,5.29667497387773,100.701069409635,-7.66036767197754,0
3.52767944335938,43.25,41.7355766296387,136,19.8364791870117,-15.7299995422363,-15.5167436599731,14.9830074310303,-15.9941997528076,14.9603870773041,-0.430770993232727,5.70922357712143,-1.95872451525176e-15,5.70922357712143,100.699142456055,-7.65999984741211,0
3.6107325553894,43.3299980163574,41.7355766296387,136,19.8364791870117,-14.8099994659424,-15.5167436599731,15.0591146715756,-15.9941997528076,14.7984794107638,-0.430770993232727,6.33996400525842,-1.95872451525176e-15,6.33996400525842,92.8419148493011,-7.10084876752917,0
3.64905738830566,43.3699989318848,41.7355766296387,136,19.8364791870117,-14.7999992370605,-15.5167436599731,15.0616989135742,-15.9941997528076,14.691204661611,-0.430770993232727,6.65173880477785,-1.95872451525176e-15,6.65173880477785,92.8299865722656,-7.09999990463257,0
3.70517349243164,43.4099998474121,43.8085517883301,136,33.1911506652832,-14.0799999237061,-14.6303749084473,15.1226338676403,-15.9941997528076,14.55236502616,-0.430770993232727,7.04607603241606,-1.95872451525176e-15,7.04607603241606,86.2731440228326,-6.54304940662339,0
3.7232403755188,43.4500007629395,43.8085517883301,136,33.1911506652832,-14.0799999237061,-14.6303749084473,15.1276264190674,-15.9941997528076,14.4443695736968,-0.430770993232727,7.33587046771141,-1.95872451525176e-15,7.33587046771141,86.2372436523438,-6.53999996185303,0
3.79305052757263,43.5099983215332,43.8085517883301,136,33.1911506652832,-13.460000038147,-14.6303749084473,15.1555461316203,-15.9941997528076,14.2068977345847,-0.430770993232727,7.91745396475851,-1.95872451525176e-15,7.91745396475851,83.2852875285101,-5.98549067976555,0
3.83651733398438,43.5799980163574,43.8085517883301,136,33.1911506652832,-13.4699993133545,-14.6303749084473,15.1574382781982,-15.9941997528076,14.0384028739817,-0.430770993232727,8.27427265618506,-1.95872451525176e-15,8.27427265618506,83.2560577392578,-5.98000001907349,0
3.89891862869263,43.6199989318848,43.8085517883301,136,33.1911506652832,-12.8400001525879,-14.6303749084473,15.2425388318223,-15.9941997528076,13.7919942917345,-0.430770993232727,8.77767622216514,-1.95872451525176e-15,8.77767622216514,72.029576268641,-5.41104791879432,0
3.95124340057373,43.6800003051758,43.8085517883301,136,33.1911506652832,-12.8599996566772,-14.6303749084473,15.2699098587036,-15.9941997528076,13.5117023391593,-0.430770993232727,9.30272098991228,-1.95872451525176e-15,9.30272098991228,72.0088958740234,-5.40999984741211,0
3.99206709861755,43.7099990844727,42.1939697265625,136,43.282657623291,-12.3000001907349,-12.9024887084961,15.3116126343223,-15.9941997528076,13.320081365211,-0.430770993232727,9.64129236158908,-1.95872451525176e-15,9.64129236158908,67.5222209748841,-4.847222514683,0
4.03940796852112,43.75,42.1939697265625,136,43.282657623291,-12.3099994659424,-12.9024887084961,15.3153524398804,-15.9941997528076,13.1154806867514,-0.430770993232727,9.97535442802426,-1.95872451525176e-15,9.97535442802426,67.4646377563477,-4.83999967575073,0
4.07769060134888,43.7799987792969,42.1939697265625,136,43.282657623291,-12.3299999237061,-12.9024887084961,15.5063529120591,-15.9941997528076,12.825631546473,-0.430770993232727,10.3976432420237,-1.95872451525176e-15,10.3976432420237,43.7898771300041,-4.29118965079906,0
4.1112756729126,43.8099975585938,42.1939697265625,136,43.282657623291,-11.6799993515015,-12.9024887084961,15.5526132583618,-15.9941997528076,12.6574360688869,-0.430770993232727,10.6282854434607,-1.95872451525176e-15,10.6282854434607,43.7385559082031,-4.28999996185303,0
4.15213108062744,43.8299980163574,42.1939697265625,136,43.282657623291,-11.6899995803833,-12.9024887084961,15.5526132583618,-15.9941997528076,12.3935740264888,-0.430770993232727,10.9766366672555,-1.95872451525176e-15,10.9766366672555,43.7385559082031,-4.28999996185303,0
4.23901104927063,43.8499984741211,42.1939697265625,136,43.282657623291,-11.1599998474121,-12.9024887084961,15.6878303232862,-15.9941997528076,12.0161900868574,-0.430770993232727,11.4380557610074,-1.95872451525176e-15,11.4380557610074,28.7598816580715,-3.75953514946631,0
4.29138517379761,43.879997253418,38.7354354858398,136,52.4466133117676,-10.5199995040894,-11.903621673584,15.8039068139702,-15.9941997528076,11.6084119323926,-0.430770993232727,11.8760431574297,-1.95872451525176e-15,11.8760431574297,15.9630056925783,-3.22429909119065,0
4.34042191505432,43.8999977111816,38.7354354858398,136,52.4466133117676,-10.5299997329712,-11.903621673584,15.8313932418823,-15.9941997528076,11.3919535455936,-0.430770993232727,12.0960632650659,-1.95872451525176e-15,12.0960632650659,15.8605575561523,-3.22000002861023,0
4.3843367099762,43.9199981689453,38.7354354858398,136,52.4466133117676,-10.5299997329712,-11.903621673584,15.8999974455647,-15.9941997528076,11.1493879527999,-0.430770993232727,12.3323411943008,-1.95872451525176e-15,12.3323411943008,8.98361638152851,-2.70721814739248,0
4.41881823539734,43.939998626709,38.7354354858398,136,52.4466133117676,-9.96999931335449,-11.903621673584,15.9011306762695,-15.9941997528076,10.9154998943329,-0.430770993232727,12.5483545860772,-1.95872451525176e-15,12.5483545860772,8.88681411743164,-2.70000004768372,0
4.46951055526733,43.9799995422363,38.7354354858398,136,52.4466133117676,-9.96999931335449,-11.903621673584,15.9011306762695,-15.9941997528076,10.5708185684365,-0.430770993232727,12.8303063314861,-1.95872451525176e-15,12.8303063314861,8.88681411743164,-2.70000004768372,0
4.50681519508362,44.0099983215332,38.7354354858398,136,52.4466133117676,-9.36999988555908,-11.903621673584,15.9159844027123,-15.9941997528076,10.2294914111052,-0.430770993232727,13.0961642861366,-1.95872451525176e-15,13.0961642861366,6.40613191642573,-2.20901084631054,0
4.57588791847229,44.0699996948242,37.9317016601563,136,63.1900062561035,-9.36999988555908,-10.7132587432861,16.011032909847,-15.9941997528076,9.61482019488938,-0.430770993232727,13.5511761672769,-1.95872451525176e-15,13.5511761672769,5.95570954109728,-2.17030378137595,0
4.65690445899963,44.1499977111816,37.9317016601563,136,63.1900062561035,-8.76999950408936,-10.7132587432861,16.0168571472168,-15.9941997528076,9.14216689012047,-0.430770993232727,13.8594928777613,-1.95872451525176e-15,13.8594928777613,-2.58581553137439,-1.69555898763419,0
4.67551159858704,44.1499977111816,37.9317016601563,136,63.1900062561035,-8.76999950408936,-10.7132587432861,16.0168571472168,-15.9941997528076,8.97846345924398,-0.430770993232727,13.962440890847,-1.95872451525176e-15,13.962440890847,-2.68583297729492,-1.68999993801117,0
4.72631072998047,44.2399978637695,37.9317016601563,136,63.1900062561035,-8.11999988555908,-10.7132587432861,16.1489465510676,-15.9941997528076,8.41582029745806,-0.430770993232727,14.2892712383311,-1.95872451525176e-15,14.2892712383311,-16.3266705760037,-1.21341666456604,0
4.77787017822266,44.2999992370605,37.9317016601563,136,63.1900062561035,-7.48000001907349,-10.7132587432861,16.2919164322946,-15.9941997528076,7.93794508239436,-0.430770993232727,14.5385897042473,-1.95872451525176e-15,14.5385897042473,-37.9517098567918,-0.756799088660005,0
4.83255767822266,44.3400001525879,37.9317016601563,136,63.1900062561035,-7.48000001907349,-10.7132587432861,16.4405046056326,-15.9941997528076,7.45937214092671,-0.430770993232727,14.7665041383212,-1.95872451525176e-15,14.7665041383212,-38.2746696472168,-0.75,0
4.8976948261261,44.3999977111816,37.9317016601563,136,63.1900062561035,-6.76999998092651,-10.7132587432861,16.6136251182242,-15.9941997528076,6.92326710235247,-0.430770993232727,14.9922118881366,-1.95872451525176e-15,14.9922118881366,-63.548206016468,-0.330170700645182,0
4.93078064918518,44.439998626709,38.5114440917969,136,75.9034271240234,-6.75999975204468,-7.68279981613159,16.6255836486816,-15.9941997528076,6.51613741405411,-0.430770993232727,15.14925134517,-1.95872451525176e-15,15.14925134517,-63.5584831237793,-0.329999983310699,0
4.9924373626709,44.4699974060059,38.5114440917969,136,75.9034271240234,-6.75,-7.68279981613159,16.683014377942,-15.9941997528076,6.12995741194253,-0.430770993232727,15.2865519645918,-1.95872451525176e-15,15.2865519645918,-69.6433524543836,0.06952685992537,0
5.03991103172302,44.5099983215332,38.5114440917969,136,75.9034271240234,-6.19000005722046,-7.68279981613159,16.6865043640137,-15.9941997528076,5.53845244608637,-0.430770993232727,15.4720442763066,-1.95872451525176e-15,15.4720442763066,-69.6505584716797,0.0700000002980232,0
5.09612822532654,44.5499992370605,38.5114440917969,136,75.9034271240234,-5.67999982833862,-7.68279981613159,16.7765541415912,-15.9941997528076,4.74808928253484,-0.430770993232727,15.6634226343467,-1.95872451525176e-15,15.6634226343467,-79.5628192465954,0.439033074233731,0
5.13691282272339,44.5799980163574,38.5114440917969,136,75.9034271240234,-5.67999982833862,-7.68279981613159,16.8326762970539,-15.9941997528076,4.37084089690655,-0.430770993232727,15.7427294319004,-1.95872451525176e-15,15.7427294319004,-79.5887908935547,0.439999997615814,0
5.17024230957031,44.6100006103516,38.5114440917969,136,75.9034271240234,-5.69000005722046,-7.68279981613159,16.8767343049493,-15.9941997528076,4.08734540221883,-0.430770993232727,15.8002911395974,-1.95872451525176e-15,15.8002911395974,-88.2420459083763,0.739129505468677,0
5.21167683601379,44.629997253418,38.5114440917969,136,75.9034271240234,-5.25,-7.68279981613159,16.8813495635986,-15.9941997528076,3.68808713952491,-0.430770993232727,15.8764404102873,-1.95872451525176e-15,15.8764404102873,-89.1350708007813,0.769999980926514,0
5.27333664894104,44.6499977111816,38.5114440917969,136,75.9034271240234,-5.26999998092651,-7.68279981613159,16.8813495635986,-15.9941997528076,3.08355226238998,-0.430770993232727,15.9507917846351,-1.95872451525176e-15,15.9507917846351,-89.1350708007813,0.769999980926514,0
5.30613207817078,44.6699981689453,37.4216728210449,136,89.2200012207031,-4.90000009536743,-4.30834341049194,16.8949601008171,-15.9941997528076,2.6944471454232,-0.430770993232727,15.9951264541355,-1.95872451525176e-15,15.9951264541355,-90.6799029061855,1.05876526272886,0
5.35282301902771,44.6800003051758,37.4216728210449,136,89.2200012207031,-4.90000009536743,-4.30834341049194,16.8968639373779,-15.9941997528076,2.25425914124302,-0.430770993232727,16.040312236753,-1.95872451525176e-15,16.040312236753,-90.6865081787109,1.05999994277954,0
5.38805437088013,44.689998626709,37.4216728210449,136,89.2200012207031,-4.40999984741211,-4.30834341049194,17.0538292374223,-15.9941997528076,1.84059952788136,-0.430770993232727,16.0716921234384,-1.95872451525176e-15,16.0716921234384,-107.031263412926,1.31866452746628,0
5.46926736831665,44.7000007629395,37.4216728210449,136,89.2200012207031,-4.40999984741211,-4.30834341049194,17.0611553192139,-15.9941997528076,1.23059260528784,-0.430770993232727,16.0715001650868,-1.95872451525176e-15,16.0715001650868,-107.115646362305,1.3199999332428,0
5.50250625610352,44.7000007629395,37.4216728210449,136,89.2200012207031,-4.28999996185303,-4.30834341049194,17.0798515631993,-15.9941997528076,0.67757937322394,-0.430770993232727,16.0431767035722,-1.95872451525176e-15,16.0431767035722,-109.108524995974,1.52890795797309,0
5.54263401031494,44.7099990844727,37.4216728210449,136,89.2200012207031,-4.28999996185303,-4.30834341049194,17.0811882019043,-15.9941997528076,0.458943992444736,-0.430770993232727,16.0258311386988,-1.95872451525176e-15,16.0258311386988,-109.118942260742,1.52999997138977,0
5.59581446647644,44.7099990844727,37.4216728210449,136,89.2200012207031,-4.30999994277954,-4.30834341049194,17.0359465327941,-15.9941997528076,-0.113080092859,-0.430770993232727,15.9620172779778,-1.95872451525176e-15,15.9620172779778,-103.503418168124,1.71390632047399,0
5.63845658302307,44.7099990844727,37.4216728210449,136,89.2200012207031,-4.29999971389771,-4.30834341049194,17.02317237854,-15.9941997528076,-0.489334988565652,-0.430770993232727,15.9018730033161,-1.95872451525176e-15,15.9018730033161,-103.317352294922,1.71999990940094,0
5.71111011505127,44.4899978637695,38.3780670166016,136,101.387886047363,-4.34999990463257,-3.25954461097717,16.9999895534919,-15.9941997528076,-1.12474791821776,-0.430770993232727,15.7637988308457,-1.95872451525176e-15,15.7637988308457,-100.868133724566,1.86992993824291,0
5.74847173690796,44.4899978637695,38.3780670166016,136,101.387886047363,-4.33999967575073,-3.25954461097717,16.9986686706543,-15.9941997528076,-1.47129031780657,-0.430770993232727,15.6740433755709,-1.95872451525176e-15,15.6740433755709,-100.866989135742,1.87000000476837,0
5.78642964363098,42.5200004577637,38.3780670166016,136,101.387886047363,-4.5,-3.25954461097717,16.8879081650041,-15.9941997528076,-1.74640179940994,-0.430770993232727,15.6001975457054,-1.95872451525176e-15,15.6001975457054,-86.6309747630261,2.00946311399218,0
5.88663005828857,42.5299987792969,38.3780670166016,136,101.387886047363,-4.48999977111816,-3.25954461097717,16.8557605743408,-15.9941997528076,-2.47643540824649,-0.430770993232727,15.3485556029267,-1.95872451525176e-15,15.3485556029267,-86.576171875,2.00999999046326,0
5.89592289924622,40.3099975585938,38.3780670166016,136,101.387886047363,-4.69000005722046,-3.25954461097717,16.7848147700438,-15.9941997528076,-2.59105997438998,-0.430770993232727,15.3021373582142,-1.95872451525176e-15,15.3021373582142,-77.9883656562129,2.12977383645491,0
5.93329858779907,40.3199996948242,38.3780670166016,136,101.387886047363,-4.69000005722046,-3.25954461097717,16.7625503540039,-15.9941997528076,-2.92103614992973,-0.430770993232727,15.1655260841941,-1.95872451525176e-15,15.1655260841941,-77.2551574707031,2.1399998664856,0
6.00801825523376,38.0299987792969,38.3780670166016,136,101.387886047363,-4.8899998664856,-3.25954461097717,16.7184711262192,-15.9941997528076,-3.48537615434958,-0.430770993232727,14.9085880412788,-1.95872451525176e-15,14.9085880412788,-72.6348347226516,2.25909437364416,0
6.04628348350525,38.0299987792969,38.3780670166016,136,101.387886047363,-4.8899998664856,-3.25954461097717,16.7159957885742,-15.9941997528076,-3.78127911061945,-0.430770993232727,14.7477148775278,-1.95872451525176e-15,14.7477148775278,-72.5997009277344,2.25999999046326,0
6.10680747032166,35.3999977111816,41.3370132446289,136,114.49919128418,-4.92000007629395,-2.07103157043457,16.8051234614852,-15.9941997528076,-4.25310930161659,-0.430770993232727,14.4884381708358,-1.95872451525176e-15,14.4884381708358,-82.0499733962973,2.38987322042292,0
6.13650631904602,35.3999977111816,41.3370132446289,136,114.49919128418,-4.92000007629395,-2.07103157043457,16.8105907440186,-15.9941997528076,-4.42354549763093,-0.430770993232727,14.3928827875197,-1.95872451525176e-15,14.3928827875197,-82.0591888427734,2.3899998664856,0
6.17874145507813,32.3199996948242,41.3370132446289,136,114.49919128418,-4.69999980926514,-2.07103157043457,16.9055478865792,-15.9941997528076,-4.80785778367247,-0.430770993232727,14.1698753726656,-1.95872451525176e-15,14.1698753726656,-98.3037814435101,2.51962018306813,0
6.2627854347229,32.3199996948242,41.3370132446289,136,114.49919128418,-4.69999980926514,-2.07103157043457,16.9735126495361,-15.9941997528076,-5.51440750263875,-0.430770993232727,13.7224980197006,-1.95872451525176e-15,13.7224980197006,-98.3513793945313,2.51999998092651,0
6.31185865402222,28.7999992370605,41.3370132446289,136,114.49919128418,-4.34999990463257,-2.07103157043457,17.1668920104716,-15.9941997528076,-5.88152339716731,-0.430770993232727,13.4823751738952,-1.95872451525176e-15,13.4823751738952,-119.485346795692,2.63598833772042,0
6.33746385574341,28.7999992370605,41.3370132446289,136,114.49919128418,-4.3600001335144,-2.07103157043457,17.1921615600586,-15.9941997528076,-6.05551060752446,-0.430770993232727,13.3671621203143,-1.95872451525176e-15,13.3671621203143,-120.216278076172,2.6399998664856,0
6.37967753410339,24.5699996948242,41.3370132446289,136,114.49919128418,-3.74000000953674,-2.07103157043457,17.3520716423021,-15.9941997528076,-6.42222151234351,-0.430770993232727,13.1113400817938,-1.95872451525176e-15,13.1113400817938,-149.978895119206,2.72950279385485,0
6.42440748214722,24.5699996948242,41.3370132446289,136,114.49919128418,-3.74000000953674,-2.07103157043457,17.524694442749,-15.9941997528076,-6.83108417970126,-0.430770993232727,12.8153460344692,-1.95872451525176e-15,12.8153460344692,-153.46955871582,2.74000000953674,0
6.46742105484009,24.5699996948242,40.9616775512695,136,125.966011047363,-3.75999999046326,-0.520828425884247,17.524694442749,-15.9941997528076,-7.2275310256525,-0.430770993232727,12.4835137476534,-1.95872451525176e-15,12.4835137476534,-153.46955871582,2.74000000953674,0
6.52962684631348,20.1199989318848,40.9616775512695,136,125.966011047363,-3.36999988555908,-0.520828425884247,17.6836494673303,-15.9941997528076,-7.65103133684252,-0.430770993232727,12.1186992065605,-1.95872451525176e-15,12.1186992065605,-170.177749739764,2.81989690575588,0
6.58184289932251,15.6199998855591,40.9616775512695,136,125.966011047363,-3.0699999332428,-0.520828425884247,17.7360729788208,-15.9941997528076,-8.05685868128514,-0.430770993232727,11.7448799498103,-1.95872451525176e-15,11.7448799498103,-174.85036295605,2.87976701088906,0
6.61642122268677,15.6199998855591,40.9616775512695,136,125.966011047363,-3.07999992370605,-0.520828425884247,17.7386837005615,-15.9941997528076,-8.20060422702922,-0.430770993232727,11.6120553035943,-1.95872451525176e-15,11.6120553035943,-174.86848449707,2.87999987602234,0
6.70499968528748,11.3699998855591,40.9616775512695,136,125.966011047363,-2.92999982833862,-0.520828425884247,17.6892488007613,-15.9941997528076,-8.65762721417658,-0.430770993232727,11.0926449854067,-1.95872451525176e-15,11.0926449854067,-169.920574257678,2.92995041874346,0
6.7177414894104,11.3699998855591,40.9616775512695,136,125.966011047363,-2.95000004768372,-0.520828425884247,17.6891555786133,-15.9941997528076,-8.72629030132296,-0.430770993232727,11.0091909207214,-1.95872451525176e-15,11.0091909207214,-169.915679931641,2.92999982833862,0
6.7808473110199,7.50999975204468,40.9616775512695,136,125.966011047363,-3.02999997138977,-0.520828425884247,17.5994897931534,-15.9941997528076,-9.10216628664102,-0.430770993232727,10.5421264916476,-1.95872451525176e-15,10.5421264916476,-159.241032784269,2.97995707789138,0
6.82822775840759,7.50999975204468,40.9616775512695,136,125.966011047363,-3.04999995231628,-0.520828425884247,17.5823173522949,-15.9941997528076,-9.29236218852828,-0.430770993232727,10.2782836813038,-1.95872451525176e-15,10.2782836813038,-159.231857299805,2.98000001907349,0
6.8761785030365,7.50999975204468,35.2612838745117,136,138.135177612305,-3.07999992370605,0.612971603870392,17.5823173522949,-15.9941997528076,-9.43927374731846,-0.430770993232727,10.0510299880419,-1.95872451525176e-15,10.0510299880419,-159.231857299805,2.98000001907349,0
6.90702795982361,3.79999995231628,35.2612838745117,136,138.135177612305,-3.19999980926514,0.612971603870392,17.4360098786096,-15.9941997528076,-9.59298804304752,-0.430770993232727,9.8077985305672,-1.95872451525176e-15,9.8077985305672,-143.378158272141,3.00994704269285,0
6.96461296081543,3.79999995231628,35.2612838745117,136,138.135177612305,-3.24000000953674,0.612971603870392,17.4235000610352,-15.9941997528076,-9.78633671813081,-0.430770993232727,9.48384120347514,-1.95872451525176e-15,9.48384120347514,-143.350128173828,3.00999999046326,0
7.04600310325623,0.429999977350235,35.2612838745117,136,138.135177612305,-3.44999980926514,0.612971603870392,17.3335294532229,-15.9941997528076,-9.97298891486603,-0.430770993232727,9.14992465551802,-1.95872451525176e-15,9.14992465551802,-134.28052972439,3.04899840838387,0
7.07431745529175,0.429999977350235,35.2612838745117,136,138.135177612305,-3.47000002861023,0.612971603870392,17.218836679539,-15.9941997528076,-10.0673823565434,-0.430770993232727,8.93725712409895,-1.95872451525176e-15,8.93725712409895,-121.694412098042,3.07993027212143,0
7.10466623306274,-2.58999991416931,35.2612838745117,136,138.135177612305,-3.72000002861023,0.612971603870392,17.2066555023193,-15.9941997528076,-10.1504275024535,-0.430770993232727,8.74385456907194,-1.95872451525176e-15,8.74385456907194,-121.665664672852,3.07999992370605,0
7.22494912147522,-5.26999998092651,35.2612838745117,136,138.135177612305,-4.13000011444092,0.612971603870392,17.0975342324955,-15.9941997528076,-10.3657185860468,-0.430770993232727,8.23883828757771,-1.95872451525176e-15,8.23883828757771,-110.235856225478,3.09990032943933,0
7.2952995300293,-7.71000003814697,23.6979141235352,136,146.945617675781,-4.44000005722046,2.26174759864807,16.9644194026416,-15.9941997528076,-10.4855847377313,-0.430770993232727,7.85744325120833,-1.95872451525176e-15,7.85744325120833,-96.4227320163965,3.09999990463257,0
7.30927157402039,-7.71000003814697,23.6979141235352,136,146.945617675781,-4.44999980926514,2.26174759864807,16.9533939361572,-15.9941997528076,-10.516175870794,-0.430770993232727,7.76026125775381,-1.95872451525176e-15,7.76026125775381,-96.3395080566406,3.09999990463257,0
7.34026408195496,-7.71000003814697,23.6979141235352,136,146.945617675781,-4.46999979019165,2.26174759864807,16.9533939361572,-15.9941997528076,-10.5494425878722,-0.430770993232727,7.63753266696311,-1.95872451525176e-15,7.63753266696311,-96.3395080566406,3.09999990463257,0
7.39213299751282,-9.71000003814697,23.6979141235352,136,146.945617675781,-4.94999980926514,2.26174759864807,16.7857322854875,-15.9941997528076,-10.6036430725212,-0.430770993232727,7.43056661325463,-1.95872451525176e-15,7.43056661325463,-73.1913022290462,3.09001018139831,0
7.43395376205444,-9.71000003814697,23.6979141235352,136,146.945617675781,-4.96999979019165,2.26174759864807,16.7216739654541,-15.9941997528076,-10.6268914949669,-0.430770993232727,7.24931574649687,-1.95872451525176e-15,7.24931574649687,-73.1675109863281,3.08999991416931,0
7.50558066368103,-11.2199993133545,23.6979141235352,136,146.945617675781,-5.61999988555908,2.26174759864807,16.5053225989271,-15.9941997528076,-10.6393447901902,-0.430770993232727,6.99665110279033,-1.95872451525176e-15,6.99665110279033,-50.640764206743,3.06001262522338,0
7.53310084342957,-11.2199993133545,23.6979141235352,136,146.945617675781,-5.62999963760376,2.26174759864807,16.4963111877441,-15.9941997528076,-10.640056489057,-0.430770993232727,6.93360199645551,-1.95872451525176e-15,6.93360199645551,-50.6312370300293,3.05999994277954,0
7.61368322372437,-12.3099994659424,23.6979141235352,136,146.945617675781,-6.48000001907349,2.26174759864807,16.1199322677499,-15.9941997528076,-10.628054525215,-0.430770993232727,6.72149983929798,-1.95872451525176e-15,6.72149983929798,-10.9042461916367,3.03032370741814,0
7.67260670661926,-12.3099994659424,12.3669509887695,136,151.864624023438,-6.48000001907349,2.88340878486633,16.0947074890137,-15.9941997528076,-10.6036692650333,-0.430770993232727,6.60286381440696,-1.95872451525176e-15,6.60286381440696,-10.4708671569824,3.02999997138977,0
7.70174336433411,-13.1199998855591,12.3669509887695,136,151.864624023438,-7.42999982833862,2.88340878486633,15.7478969886611,-15.9941997528076,-10.5776018080754,-0.430770993232727,6.51380923542282,-1.95872451525176e-15,6.51380923542282,24.6154732100789,3.00170178609954,0
7.73138546943665,-13.1199998855591,12.3669509887695,136,151.864624023438,-7.44000005722046,2.88340878486633,15.7227439880371,-15.9941997528076,-10.5529129528693,-0.430770993232727,6.41995751867073,-1.95872451525176e-15,6.41995751867073,26.7254829406738,3,0
7.83935260772705,-13.6499996185303,12.3669509887695,136,151.864624023438,-8.39999961853027,2.88340878486633,15.3611401590767,-15.9941997528076,-10.4755268377475,-0.430770993232727,6.24014163909794,-1.95872451525176e-15,6.24014163909794,63.9911954513173,2.98004290383998,0
7.90653085708618,-13.9399995803833,12.3669509887695,136,151.864624023438,-9.46999931335449,2.88340878486633,15.0138017601017,-15.9941997528076,-10.3873534774803,-0.430770993232727,6.12490319987228,-1.95872451525176e-15,6.12490319987228,99.3133248232219,2.97020331973313,0
7.94806742668152,-13.9399995803833,12.3669509887695,136,151.864624023438,-9.46999931335449,2.88340878486633,14.9895524978638,-15.9941997528076,-10.3417744120091,-0.430770993232727,6.07533802608043,-1.95872451525176e-15,6.07533802608043,100.044631958008,2.97000002861023,0
8.01404070854187,-13.960000038147,12.3669509887695,136,151.864624023438,-10.4399995803833,2.88340878486633,14.6365470361462,-15.9941997528076,-10.2756000725217,-0.430770993232727,6.01886985167638,-1.95872451525176e-15,6.01886985167638,137.093453836699,2.97000002861023,0
8.03032255172729,-13.960000038147,12.3669509887695,136,151.864624023438,-10.4399995803833,2.88340878486633,14.6186456680298,-15.9941997528076,-10.2436916022154,-0.430770993232727,6.00309000803116,-1.95872451525176e-15,6.00309000803116,137.135314941406,2.97000002861023,0
8.08963370323181,-13.960000038147,12.3669509887695,136,151.864624023438,-10.4399995803833,2.88340878486633,14.1750089140775,-15.9941997528076,-10.155714706552,-0.430770993232727,5.97151595970868,-1.95872451525176e-15,5.97151595970868,182.348150654774,2.98976948947573,0
8.15766525268555,-13.7599992752075,0.762933194637299,136,151.960342407227,-11.539999961853,1.90982031822205,13.9584373672135,-15.9941997528076,-10.0628241362285,-0.430770993232727,5.96093606279566,-1.95872451525176e-15,5.96093606279566,182.875350952148,2.99000000953674,0
8.22397422790527,-13.4099998474121,0.762933194637299,136,151.960342407227,-12.5099992752075,1.90982031822205,13.8713846206665,-15.9941997528076,-9.97548724796227,-0.430770993232727,5.9559832130571,-1.95872451525176e-15,5.9559832130571,210.811216563673,3.02855072054799,0
8.28875827789307,-12.8599996566772,0.762933194637299,136,151.960342407227,-13.3999996185303,1.90982031822205,13.6471679900234,-15.9941997528076,-9.89179885134784,-0.430770993232727,5.9604719460854,-1.95872451525176e-15,5.9604719460854,239.195581501246,3.07991815482338,0
8.34837675094604,-12.8599996566772,0.762933194637299,136,151.960342407227,-13.3999996185303,1.90982031822205,13.5975952148438,-15.9941997528076,-9.8125263471624,-0.430770993232727,5.99420785087311,-1.95872451525176e-15,5.99420785087311,239.240356445313,3.07999992370605,0
8.42182397842407,-12.1999998092651,0.762933194637299,136,151.960342407227,-14.210000038147,1.90982031822205,13.2150612573282,-15.9941997528076,-9.73728415347079,-0.430770993232727,6.03959212273354,-1.95872451525176e-15,6.03959212273354,278.736743852558,3.1496965403779,0
8.4444591999054,-12.1999998092651,0.762933194637299,136,151.960342407227,-14.210000038147,1.90982031822205,13.2009124755859,-15.9941997528076,-9.70722349864988,-0.430770993232727,6.05552886121823,-1.95872451525176e-15,6.05552886121823,278.908630371094,3.14999985694885,0
8.51497292518616,-11.5,0.762933194637299,136,151.960342407227,-15.1899995803833,1.90982031822205,12.6768540057235,-15.9941997528076,-9.61506533404362,-0.430770993232727,6.13002473478286,-1.95872451525176e-15,6.13002473478286,333.757310599468,3.24995359323479,0
8.53820300102234,-11.5,-8.46114063262939,136,150.993072509766,-15.1799993515015,-1.5658198595047,12.6521711349487,-15.9941997528076,-9.59653624050925,-0.430770993232727,6.15165843284238,-1.95872451525176e-15,6.15165843284238,333.782775878906,3.25,0
8.59197449684143,-10.6599998474121,-8.46114063262939,136,150.993072509766,-15.8899993896484,-1.5658198595047,12.3403417864369,-15.9941997528076,-9.53911443287991,-0.430770993232727,6.25429142905305,-1.95872451525176e-15,6.25429142905305,366.07794450741,3.36985243656965,0
8.63412761688232,-10.6599998474121,-8.46114063262939,136,150.993072509766,-15.8899993896484,-1.5658198595047,12.3288221359253,-15.9941997528076,-9.50646080279188,-0.430770993232727,6.34387786732894,-1.95872451525176e-15,6.34387786732894,366.11767578125,3.36999988555908,0
8.71017909049988,-9.51999950408936,-8.46114063262939,136,150.993072509766,-16.2099990844727,-1.5658198595047,12.3162268385344,-15.9941997528076,-9.4355892862104,-0.430770993232727,6.51328054397553,-1.95872451525176e-15,6.51328054397553,367.461430319173,3.50993372518341,0
8.78444170951843,-8.46000003814697,-8.46114063262939,136,150.993072509766,-16.7199993133545,-1.5658198595047,12.1239338642007,-15.9941997528076,-9.38344312345059,-0.430770993232727,6.67757412356993,-1.95872451525176e-15,6.67757412356993,387.508669497261,3.63307838919016,0
8.82591342926025,-8.46000003814697,-8.46114063262939,136,150.993072509766,-16.7199993133545,-1.5658198595047,12.1036386489868,-15.9941997528076,-9.35072540880302,-0.430770993232727,6.76685162383459,-1.95872451525176e-15,6.76685162383459,388.636016845703,3.6399998664856,0
8.88747644424438,-8.44999980926514,-8.46114063262939,136,150.993072509766,-16.7199993133545,-1.5658198595047,11.7703122010276,-15.9941997528076,-9.32775913785928,-0.430770993232727,6.84526496421693,-1.95872451525176e-15,6.84526496421693,425.277401116422,3.78960073374919,0
8.93548178672791,-7.50999975204468,-8.46114063262939,136,150.993072509766,-17.3299999237061,-1.5658198595047,11.7362470626831,-15.9941997528076,-9.29915304599563,-0.430770993232727,6.97448620402643,-1.95872451525176e-15,6.97448620402643,425.375183105469,3.78999996185303,0
8.97062063217163,-7.5,-11.3038291931152,136,149.162857055664,-17.3299999237061,-5.36232995986938,11.5153748058461,-15.9941997528076,-9.28399939153287,-0.430770993232727,7.05333589702058,-1.95872451525176e-15,7.05333589702058,452.225832025179,3.94948755623158,0
9.01130056381226,-6.52999973297119,-11.3038291931152,136,149.162857055664,-17.8500003814697,-5.36232995986938,11.4668779373169,-15.9941997528076,-9.27532647310083,-0.430770993232727,7.16714395660001,-1.95872451525176e-15,7.16714395660001,452.312072753906,3.94999980926514,0
9.03502702713013,-6.52999973297119,-11.3038291931152,136,149.162857055664,-17.8500003814697,-5.36232995986938,11.4668779373169,-15.9941997528076,-9.26535612658181,-0.430770993232727,7.22442088756399,-1.95872451525176e-15,7.22442088756399,452.312072753906,3.94999980926514,0
9.1090977191925,-5.46999979019165,-11.3038291931152,136,149.162857055664,-18.0699996948242,-5.36232995986938,11.4863771797295,-15.9941997528076,-9.23043674823611,-0.430770993232727,7.42386479487819,-1.95872451525176e-15,7.42386479487819,450.337878616254,4.12499666187116,0
9.14675235748291,-5.46999979019165,-11.3038291931152,136,149.162857055664,-18.0699996948242,-5.36232995986938,11.4871845245361,-15.9941997528076,-9.20980328292891,-0.430770993232727,7.52833023556387,-1.95872451525176e-15,7.52833023556387,450.281433105469,4.13000011444092,0
9.17732715606689,-4.36999988555908,-11.3038291931152,136,149.162857055664,-18.3199996948242,-5.36232995986938,11.4060789346767,-15.9941997528076,-9.20237462491955,-0.430770993232727,7.6008199556652,-1.95872451525176e-15,7.6008199556652,467.394293331184,4.31881954565009,0
9.23609900474548,-4.3600001335144,-11.3038291931152,136,149.162857055664,-18.3099994659424,-5.36232995986938,11.3149862289429,-15.9941997528076,-9.18715664809348,-0.430770993232727,7.71537885766546,-1.95872451525176e-15,7.71537885766546,467.501251220703,4.31999969482422,0
9.28675937652588,-3.3899998664856,-13.8445386886597,136,145.850555419922,-18.6000003814697,-8.38107681274414,11.0042407927488,-15.9941997528076,-9.16455072073582,-0.430770993232727,7.84997654971885,-1.95872451525176e-15,7.84997654971885,500.394998272544,4.52987848296691,0
9.34270000457764,-3.37999987602234,-13.8445386886597,136,145.850555419922,-18.6000003814697,-8.38107681274414,10.9858589172363,-15.9941997528076,-9.15701788231916,-0.430770993232727,7.94538165233159,-1.95872451525176e-15,7.94538165233159,500.414001464844,4.52999973297119,0
9.3805103302002,-2.42999982833862,-13.8445386886597,136,145.850555419922,-18.6599998474121,-8.38107681274414,10.9097636439108,-15.9941997528076,-9.15114543292656,-0.430770993232727,8.07109049542512,-1.95872451525176e-15,8.07109049542512,513.232398161717,4.75968107959857,0
9.45271611213684,-2.42999982833862,-13.8445386886597,136,145.850555419922,-18.6599998474121,-8.38107681274414,10.857497215271,-15.9941997528076,-9.14074825420579,-0.430770993232727,8.25583350978624,-1.95872451525176e-15,8.25583350978624,513.250183105469,4.75999975204468,0
9.48985290527344,-1.33999991416931,-13.8445386886597,136,145.850555419922,-18.7899990081787,-8.38107681274414,10.6761981189921,-15.9941997528076,-9.13536987380678,-0.430770993232727,8.36586714720504,-1.95872451525176e-15,8.36586714720504,532.096637657514,5.0110714951065,0
9.53511714935303,-1.32999992370605,-13.8445386886597,136,145.850555419922,-18.7999992370605,-8.38107681274414,10.6623306274414,-15.9941997528076,-9.13421373986712,-0.430770993232727,8.49646019830969,-1.95872451525176e-15,8.49646019830969,532.766845703125,5.01999998092651,0
9.61329960823059,-0.329999983310699,-13.8445386886597,136,145.850555419922,-18.5,-8.38107681274414,10.6641682886071,-15.9941997528076,-9.14162664414792,-0.430770993232727,8.69145257038309,-1.95872451525176e-15,8.69145257038309,532.568903812904,5.30973906158114,0
9.6343948841095,-0.329999983310699,-13.8445386886597,136,145.850555419922,-18.5,-8.38107681274414,10.6643114089966,-15.9941997528076,-9.15436745352484,-0.430770993232727,8.75679203833577,-1.95872451525176e-15,8.75679203833577,532.568725585938,5.30999994277954,0
9.74965882301331,0.550000011920929,-13.8445386886597,136,145.850555419922,-17.9200000762939,-8.38107681274414,10.743244748455,-15.9941997528076,-9.20787114851086,-0.430770993232727,9.05077161463425,-1.95872451525176e-15,9.05077161463425,524.551362908892,5.62459766113877,0
9.81400322914124,1.25999999046326,-7.83195495605469,136,141.570449829102,-17.0100002288818,-11.8554039001465,10.8877447761148,-15.9941997528076,-9.24287854953714,-0.430770993232727,9.17403261650752,-1.95872451525176e-15,9.17403261650752,506.848873250124,5.97232989289598,0
9.84178948402405,1.25999999046326,-7.83195495605469,136,141.570449829102,-17.0100002288818,-11.8554039001465,10.9254455566406,-15.9941997528076,-9.27079864115946,-0.430770993232727,9.24405753639467,-1.95872451525176e-15,9.24405753639467,506.455322265625,5.98000001907349,0
9.90528964996338,1.87999999523163,-7.83195495605469,136,141.570449829102,-15.6999998092651,-11.8554039001465,11.0760938268047,-15.9941997528076,-9.33343334052637,-0.430770993232727,9.42190293797624,-1.95872451525176e-15,9.42190293797624,491.30171211104,6.30615790521901,0
9.94976401329041,1.87999999523163,-7.83195495605469,136,141.570449829102,-15.6999998092651,-11.8554039001465,11.0973510742188,-15.9941997528076,-9.37266929898853,-0.430770993232727,9.53817088057565,-1.95872451525176e-15,9.53817088057565,489.264770507813,6.34999990463257,0
9.98580455780029,2.35999989509583,-7.83195495605469,136,141.570449829102,-14.3199996948242,-11.8554039001465,11.3606197864211,-15.9941997528076,-9.41475031331894,-0.430770993232727,9.62889711748631,-1.95872451525176e-15,9.62889711748631,462.430233618493,6.74885245199199,0
10.0307722091675,2.35999989509583,-7.83195495605469,136,141.570449829102,-14.3199996948242,-11.8554039001465,11.3664684295654,-15.9941997528076,-9.44346820239115,-0.430770993232727,9.72142046026922,-1.95872451525176e-15,9.72142046026922,462.35302734375,6.75,0
10.1000967025757,2.86999988555908,-7.83195495605469,136,141.570449829102,-12.710000038147,-11.8554039001465,11.6124667475073,-15.9941997528076,-9.50285631967816,-0.430770993232727,9.83551075464949,-1.95872451525176e-15,9.83551075464949,433.284280280544,7.18600933807731,0
10.1337180137634,2.86999988555908,-7.83195495605469,136,141.570449829102,-12.710000038147,-11.8554039001465,11.6598167419434,-15.9941997528076,-9.55544802778557,-0.430770993232727,9.9373949158169,-1.95872451525176e-15,9.9373949158169,433.018218994141,7.19000005722046,0
10.2678198814392,3.24000000953674,-2.32949662208557,136,140.311309814453,-10.8000001907349,-12.5907907485962,12.213840141018,-15.9941997528076,-9.77052775936292,-0.430770993232727,10.2038247894516,-1.95872451525176e-15,10.2038247894516,376.302074103373,7.65796169640627,0
10.3171148300171,3.40999984741211,-2.32949662208557,136,140.311309814453,-8.67000007629395,-12.5907907485962,12.7739005545576,-15.9941997528076,-9.86992963810516,-0.430770993232727,10.3227596785247,-1.95872451525176e-15,10.3227596785247,314.920878103416,8.1462134567768,0
10.3382725715637,3.40999984741211,-2.32949662208557,136,140.311309814453,-8.67000007629395,-12.5907907485962,12.8455505371094,-15.9941997528076,-9.91618738744188,-0.430770993232727,10.3694801594721,-1.95872451525176e-15,10.3694801594721,314.44482421875,8.14999961853027,0
10.3866930007935,3.37999987602234,-2.32949662208557,136,140.311309814453,-6.52999973297119,-12.5907907485962,13.4725905362376,-15.9941997528076,-10.0804928949351,-0.430770993232727,10.4874444202957,-1.95872451525176e-15,10.4874444202957,251.593704118088,8.62840369706324,0
10.4353141784668,3.3899998664856,-2.32949662208557,136,140.311309814453,-6.52999973297119,-12.5907907485962,13.4761590957642,-15.9941997528076,-10.1657443450194,-0.430770993232727,10.5596811541963,-1.95872451525176e-15,10.5596811541963,251.383972167969,8.63000011444092,0
10.5417885780334,3.17999982833862,-2.32949662208557,136,140.311309814453,-4.42000007629395,-12.5907907485962,14.1797758794873,-15.9941997528076,-10.4182905362921,-0.430770993232727,10.7168884338309,-1.95872451525176e-15,10.7168884338309,178.390899412285,9.10328233261482,0
10.6140069961548,2.87999987602234,3.43368291854858,136,140.423583984375,-2.50999999046326,-9.0388240814209,14.8929778268863,-15.9941997528076,-10.614596563113,-0.430770993232727,10.8272984631239,-1.95872451525176e-15,10.8272984631239,105.872564129747,9.55741521959901,0
10.6436388492584,2.8899998664856,3.43368291854858,136,140.423583984375,-2.50999999046326,-9.0388240814209,14.9354019165039,-15.9941997528076,-10.6613651721172,-0.430770993232727,10.8584677590531,-1.95872451525176e-15,10.8584677590531,105.459686279297,9.55999946594238,0
10.6898884773254,2.52999997138977,3.43368291854858,136,140.423583984375,-0.85999995470047,-9.0388240814209,15.517636484943,-15.9941997528076,-10.8029317893692,-0.430770993232727,10.9234921985825,-1.95872451525176e-15,10.9234921985825,47.1154381225746,9.9694791329219,0
10.7728755474091,2.53999996185303,3.43368291854858,136,140.423583984375,-0.85999995470047,-9.0388240814209,15.519585609436,-15.9941997528076,-10.9487529889393,-0.430770993232727,10.988509224587,-1.95872451525176e-15,10.988509224587,47.0413208007813,9.96999931335449,0
10.8058774471283,2.1800000667572,3.43368291854858,136,140.423583984375,0.509999990463257,-9.0388240814209,16.0085735165499,-15.9941997528076,-11.0270549180692,-0.430770993232727,11.0235785922533,-1.95872451525176e-15,11.0235785922533,-5.47329472771597,10.3285661488842,0
10.8594620227814,2.19000005722046,3.43368291854858,136,140.423583984375,0.509999990463257,-9.0388240814209,16.0614776611328,-15.9941997528076,-11.0797975885462,-0.430770993232727,11.0518063439952,-1.95872451525176e-15,11.0518063439952,-7.14788436889648,10.3400001525879,0
10.8964800834656,1.84999990463257,3.43368291854858,136,140.423583984375,1.75,-9.0388240814209,16.4850326339851,-15.9941997528076,-11.138108269894,-0.430770993232727,11.0683039707027,-1.95872451525176e-15,11.0683039707027,-53.151448664132,10.6582924176327,0
10.9274218082428,1.84999990463257,3.48198294639587,136,139.628295898438,1.75,-2.71698141098022,16.5239810943604,-15.9941997528076,-11.1790388437477,-0.430770993232727,11.0885990456666,-1.95872451525176e-15,11.0885990456666,-53.3982276916504,10.6599998474121,0
10.9906101226807,1.64999997615814,3.48198294639587,136,139.628295898438,2.67999982833862,-2.71698141098022,16.9261712397439,-15.9941997528076,-11.2370908414808,-0.430770993232727,11.1147006497357,-1.95872451525176e-15,11.1147006497357,-96.9402896651518,10.9167562038351,0
11.0616145133972,1.64999997615814,3.48198294639587,136,139.628295898438,2.67999982833862,-2.71698141098022,16.9649028778076,-15.9941997528076,-11.2716046104187,-0.430770993232727,11.1336677936249,-1.95872451525176e-15,11.1336677936249,-97.4904022216797,10.9200000762939,0
11.0993053913116,1.55999994277954,3.48198294639587,136,139.628295898438,3.41999983787537,-2.71698141098022,17.2870362862435,-15.9941997528076,-11.2829692493812,-0.430770993232727,11.1397236878986,-1.95872451525176e-15,11.1397236878986,-133.286914045804,11.0975814088958,0
11.1388294696808,1.55999994277954,3.48198294639587,136,139.628295898438,3.41999983787537,-2.71698141098022,17.347900390625,-15.9941997528076,-11.2894175931276,-0.430770993232727,11.1428030110795,-1.95872451525176e-15,11.1428030110795,-135.790161132813,11.1099996566772,0
11.1976351737976,1.5699999332428,3.48198294639587,136,139.628295898438,3.98000001907349,-2.71698141098022,17.6898120620967,-15.9941997528076,-11.2914522567753,-0.430770993232727,11.1372340230219,-1.95872451525176e-15,11.1372340230219,-170.177596018508,11.2395787644333,0
11.2366368770599,1.5699999332428,2.4972882270813,136,139.466033935547,3.98000001907349,1.70770049095154,17.692892074585,-15.9941997528076,-11.2797426537381,-0.430770993232727,11.1279123643167,-1.95872451525176e-15,11.1279123643167,-170.289321899414,11.2399997711182,0
11.3078405857086,1.54999995231628,2.4972882270813,136,139.466033935547,4.30999994277954,1.70770049095154,17.8643163218253,-15.9941997528076,-11.2370690899281,-0.430770993232727,11.0891532037373,-1.95872451525176e-15,11.0891532037373,-187.838668961226,11.309970629189,0
