datetime,roll_c,roll_m,yaw_c,yaw_m,pitch_c,pitch_m,aspd_m,vx_c,vx_m,vy_c,vy_m,vz_c,vz_m,aspd_error,alt_error,fault
0.0490016937255859,44.9500007629395,-50.9912910461426,-83,88.8500442504883,-7.06999969482422,0.721475124359131,17.6171032341872,0,-0.495380122550897,0,19.5040464006689,0,19.5040464006689,NaN,NaN,0
0.0876607894897461,44.9500007629395,-50.9912910461426,-83,88.8500442504883,-4.85999965667725,0.721475124359131,17.3914205869571,0,-0.282088354605721,0,19.4841806961936,0,19.4841806961936,-237.253753662109,-0.0599999986588955,0
0.114343404769897,44.939998626709,-50.9912910461426,-83,88.8500442504883,-4.90999984741211,0.721475124359131,17.372537612915,0,-0.0174630219083054,0,19.4550745787188,0,19.4550745787188,-237.253753662109,-0.0599999986588955,0
0.173472881317139,44.939998626709,-22.4634304046631,-84,82.6015853881836,-2.91999983787537,2.71851015090942,17.3286929006501,0,0.273388322207591,0,19.4123798138768,0,19.4123798138768,-232.689970143506,-0.11935603711729,0
0.206437826156616,44.939998626709,-22.4634304046631,-84,82.6015853881836,-2.95000004768372,2.71851015090942,17.3264045715332,0,0.396378432413302,0,19.3811354773872,0,19.3811354773872,-232.64045715332,-0.119999997317791,0
0.268648147583008,44.8499984741211,-22.4634304046631,-86,82.6015853881836,-1.25999999046326,2.71851015090942,17.3839034934815,0,0.583850412676804,0,19.3006500318446,0,19.3006500318446,-238.983501368043,-0.238891085594599,0
0.325469970703125,42.5200004577637,-22.4634304046631,-86,82.6015853881836,-1.59999990463257,2.71851015090942,17.3904266357422,0,0.648771337226555,0,19.2472073473316,0,19.2472073473316,-239.042663574219,-0.239999994635582,0
0.396229982376099,41.2999992370605,-22.4634304046631,-86,82.6015853881836,-0.159999996423721,2.71851015090942,17.5119626587098,15.228191643984,0.62593232563647,-3.3813377973111e-15,19.1296203901455,1.86491569673688e-15,19.1296203901455,-251.284538968908,-0.41269398493648,0
0.41506814956665,41.2900009155273,-22.4634304046631,-86,82.6015853881836,-0.349999994039536,2.71851015090942,17.5180244445801,16,0.615309689454909,-3.5527136788005e-15,19.0960775884505,1.95943496413627e-15,19.0960775884505,-251.802444458008,-0.419999986886978,0
0.478429079055786,-44.7700004577637,-22.4634304046631,-44,82.6015853881836,1.25,2.71851015090942,17.5686639709214,16,0.522210509915216,-3.5527136788005e-15,18.9860602168995,1.95943496413627e-15,18.9860602168995,-256.977480777792,-0.629259694316391,0
0.518636465072632,-44.7299995422363,-22.4634304046631,-44,82.6015853881836,1.25999999046326,2.71851015090942,17.5699577331543,16,0.429038553046253,-3.5527136788005e-15,18.9128049579673,1.95943496413627e-15,18.9128049579673,-256.995788574219,-0.629999995231628,0
0.608472108840942,-44.6100006103516,12.61048412323,-44,78.1361999511719,1.89999997615814,6.68500089645386,17.646199376889,16,0.143822198817898,-3.5527136788005e-15,18.7057106710892,1.95943496413627e-15,18.7057106710892,-165.588876229311,-0.868131877482664,0
0.730465650558472,-44.4799995422363,12.61048412323,-44,78.1361999511719,1.71999990940094,6.68500089645386,17.8067312280022,16,-0.0524367155352309,-3.5527136788005e-15,18.4258035094002,1.95943496413627e-15,18.4258035094002,-181.006998225249,-1.13957924751923,0
0.801191329956055,-44.4500007629395,12.61048412323,-44,78.1361999511719,1.62000000476837,6.68500089645386,17.9992799168729,16,-0.105728609898027,-3.5527136788005e-15,18.1735788026312,1.95943496413627e-15,18.1735788026312,-200.933843508381,-1.44804866508449,0
0.84104323387146,-44.4599990844727,12.61048412323,-44,78.1361999511719,1.62999999523163,6.68500089645386,18.0105991363525,16,-0.0933767460244397,-3.5527136788005e-15,18.0614005833371,1.95943496413627e-15,18.0614005833371,-201.059906005859,-1.44999992847443,0
0.923569917678833,-44.4899978637695,12.61048412323,-44,78.1361999511719,1.54999995231628,6.68500089645386,18.1840166942198,16,0.0227567179672179,-3.5527136788005e-15,17.8078471180517,1.95943496413627e-15,17.8078471180517,-219.3631418921,-1.77945282461559,0
0.996100902557373,-44.5200004577637,-11.3837566375732,-44,76.3517608642578,1.54999995231628,8.54761123657227,18.2092815769786,16,0.147089105883514,-3.5527136788005e-15,17.632563606199,1.95943496413627e-15,17.632563606199,-221.046038064426,-2.12903598617541,0
1.0272159576416,-44.5299987792969,-11.3837566375732,-44,76.3517608642578,1.59999990463257,8.54761123657227,18.1197098930865,16,0.266672960376309,-3.5527136788005e-15,17.5131356262969,1.95943496413627e-15,17.5131356262969,-200.884307657419,-2.51525071623693,0
1.08132171630859,-44.5399971008301,-11.3837566375732,-44,76.3517608642578,1.45999991893768,8.54761123657227,18.0062847137451,16,0.48973567382872,-3.5527136788005e-15,17.313424895919,1.95943496413627e-15,17.313424895919,-200.628479003906,-2.51999998092651,0
1.14994335174561,-44.5499992370605,-11.3837566375732,-44,76.3517608642578,1.50999999046326,8.54761123657227,17.6078281681269,16,0.631075088942679,-3.5527136788005e-15,17.2176887365069,1.95943496413627e-15,17.2176887365069,-200.628479003906,-2.51999998092651,0
1.19335651397705,-44.5399971008301,-11.3837566375732,-44,76.3517608642578,1.17999994754791,8.54761123657227,17.5892124176025,16,0.821742870116049,-3.5527136788005e-15,17.1087710624621,1.95943496413627e-15,17.1087710624621,-162.940518506836,-2.85434335731872,0
1.23328018188477,-44.5399971008301,-26.8369846343994,-44,77.3887176513672,1.19999992847443,7.99544334411621,17.5892124176025,16,0.966978480346538,-3.5527136788005e-15,17.0377615334141,1.95943496413627e-15,17.0377615334141,-158.921234130859,-2.8899998664856,0
1.27287888526917,-44.5499992370605,-26.8369846343994,-44,77.3887176513672,0.989999949932098,7.99544334411621,17.4591386598423,16,1.20571141178,-3.5527136788005e-15,16.9287320062141,1.95943496413627e-15,16.9287320062141,-145.780365575908,-3.24910347587323,0
1.34825801849365,-44.5699996948242,-26.8369846343994,-44,77.3887176513672,1.03999996185303,7.99544334411621,17.4574756622314,16,1.47579622020014,-3.5527136788005e-15,16.8452662908368,1.95943496413627e-15,16.8452662908368,-145.74755859375,-3.25,0
1.37644648551941,-44.5799980163574,-26.8369846343994,-44,77.3887176513672,3.03999996185303,7.99544334411621,17.4079031583802,16,1.63925739008394,-3.5527136788005e-15,16.8120516876596,1.95943496413627e-15,16.8120516876596,-134.615547531951,-3.58444084536345,0
1.45726537704468,-44.6100006103516,-26.8369846343994,-44,77.3887176513672,5.10999965667725,7.99544334411621,17.1974212554177,16,2.00946632992457,-3.5527136788005e-15,16.7558951006602,1.95943496413627e-15,16.7558951006602,-106.728575161976,-3.89956267718912,0
1.4928936958313,-44.6199989318848,-26.8369846343994,-44,77.3887176513672,5.13000011444092,7.99544334411621,17.0874300999122,16,2.13735587780137,-3.5527136788005e-15,16.7433404866364,1.95943496413627e-15,16.7433404866364,-106.689453125,-3.89999985694885,0
1.55441331863403,-44.629997253418,-26.8369846343994,-44,77.3887176513672,5.1399998664856,7.99544334411621,17.06689453125,16,2.32896946788523,-3.5527136788005e-15,16.7155048724957,1.95943496413627e-15,16.7155048724957,-106.689453125,-3.89999985694885,0
1.60703706741333,-44.6399993896484,-35.9716186523438,-44,74.4174423217773,7.27999973297119,7.02017068862915,16.6364181250227,16,2.61536253017824,-3.5527136788005e-15,16.6354451528582,1.95943496413627e-15,16.6354451528582,-63.5928297791546,-4.16908715170457,0
1.64068078994751,-44.6499977111816,-35.9716186523438,-44,74.4174423217773,7.30999994277954,7.02017068862915,16.6344661712646,16,2.77075303632155,-3.5527136788005e-15,16.5791989390068,1.95943496413627e-15,16.5791989390068,-63.4466171264648,-4.17000007629395,0
1.67207908630371,-44.6499977111816,-35.9716186523438,-44,74.4174423217773,8.38000011444092,7.02017068862915,16.3166556712251,16,2.94957696012381,-3.5527136788005e-15,16.5117186912489,1.95943496413627e-15,16.5117186912489,-27.8003762094809,-4.38886852683548,0
1.73744535446167,-44.6499977111816,-35.9716186523438,-44,74.4174423217773,8.40999984741211,7.02017068862915,16.2761611938477,16,3.29826915039067,-3.5527136788005e-15,16.372993174998,1.95943496413627e-15,16.372993174998,-27.6161193847656,-4.3899998664856,0
1.80006003379822,-44.6399993896484,-35.9716186523438,-44,74.4174423217773,8.15999984741211,7.02017068862915,16.1289594135426,16,3.6653821090107,-3.5527136788005e-15,16.2273424692038,1.95943496413627e-15,16.2273424692038,-12.4127935172991,-4.54989428531357,0
1.8288893699646,-44.6399993896484,-35.9716186523438,-44,74.4174423217773,8.17999935150146,7.02017068862915,16.1145191192627,16,3.83226735979877,-3.5527136788005e-15,16.1607462257571,1.95943496413627e-15,16.1607462257571,-11.4519119262695,-4.55999994277954,0
1.866450548172,-44.629997253418,-35.9716186523438,-44,74.4174423217773,8.31999969482422,7.02017068862915,16.1319138357805,16,4.15542459396699,-3.5527136788005e-15,16.0214338380327,1.95943496413627e-15,16.0214338380327,-14.4467150104648,-4.7171708959332,0
1.95705842971802,-44.6199989318848,-35.9716186523438,-44,74.4174423217773,8.86999988555908,7.02017068862915,16.1943817980009,16,4.7942097915837,-3.5527136788005e-15,15.7836041836646,1.95943496413627e-15,15.7836041836646,-19.7119483950273,-4.85948088530008,0
2.00600743293762,-44.6199989318848,-44.0311164855957,-44,64.998405456543,8.88000011444092,7.09003400802612,16.1973133087158,16,5.1026930722589,-3.5527136788005e-15,15.6942954383654,1.95943496413627e-15,15.6942954383654,-19.731330871582,-4.85999965667725,0
2.01892328262329,-44.6199989318848,-44.0311164855957,-44,64.998405456543,8.89999961853027,7.09003400802612,16.1973133087158,16,5.24272666989465,-3.5527136788005e-15,15.6498166612123,1.95943496413627e-15,15.6498166612123,-19.731330871582,-4.85999965667725,0
2.07297325134277,-44.6100006103516,-44.0311164855957,-44,64.998405456543,9.86999988555908,7.09003400802612,16.3275385297569,16,5.78503807134321,-3.5527136788005e-15,15.4679423046725,1.95943496413627e-15,15.4679423046725,-33.800557382701,-4.98984884975117,0
2.11914205551147,-44.5999984741211,-44.0311164855957,-44,64.998405456543,9.88999938964844,7.09003400802612,16.3381690979004,16,6.15168399538334,-3.5527136788005e-15,15.3285994185946,1.95943496413627e-15,15.3285994185946,-33.8169097900391,-4.98999977111816,0
2.17601013183594,-44.5799980163574,-44.0311164855957,-44,64.998405456543,10.960000038147,7.09003400802612,16.4559561978431,16,6.60442025305628,-3.5527136788005e-15,15.175881224314,1.95943496413627e-15,15.175881224314,-47.2833183842865,-5.08459918642665,0
2.23917961120605,-44.5699996948242,-44.0311164855957,-44,64.998405456543,10.9699993133545,7.09003400802612,16.7108155773787,16,7.30936818152446,-3.5527136788005e-15,14.8795642897047,1.95943496413627e-15,14.8795642897047,-82.1455581241052,-5.21956859668948,0
2.27795052528381,-44.5599975585938,-44.0311164855957,-44,64.998405456543,11.8499994277954,7.09003400802612,16.8226852416992,16,7.74927450401829,-3.5527136788005e-15,14.6767670443877,1.95943496413627e-15,14.6767670443877,-82.2685241699219,-5.21999979019165,0
2.31979012489319,-44.5599975585938,-44.0311164855957,-44,64.998405456543,11.8699998855591,7.09003400802612,16.8226852416992,16,8.2020479643517,-3.5527136788005e-15,14.4450800476626,1.95943496413627e-15,14.4450800476626,-82.2685241699219,-5.21999979019165,0
2.38758850097656,-44.5299987792969,-44.0311164855957,-44,64.998405456543,12.6899995803833,7.09003400802612,17.0864380053982,16,8.99633687298856,-3.5527136788005e-15,14.0059149971524,1.95943496413627e-15,14.0059149971524,-119.308803615923,-5.33954153395161,0
2.49283409118652,-44.4799995422363,-44.0311164855957,-44,64.998405456543,13.6499996185303,7.09003400802612,17.3884861717754,16,10.1244565064971,-3.5527136788005e-15,13.2942128997816,1.95943496413627e-15,13.2942128997816,-152.492140692563,-5.4598188172192,0
2.55433869361877,-44.4500007629395,-50.846061706543,-44,47.1687088012695,13.6700000762939,8.32355403900146,17.5655789858716,16,10.7665505220458,-3.5527136788005e-15,12.8651286683724,1.95943496413627e-15,12.8651286683724,-187.276787600476,-5.57996050506789,0
2.59477806091309,-44.4199981689453,-50.846061706543,-44,47.1687088012695,14.5999994277954,8.32355403900146,17.8383503042101,16,11.2143134905099,-3.5527136788005e-15,12.5338012791417,1.95943496413627e-15,12.5338012791417,-190.183639526367,-5.58999967575073,0
2.62501358985901,-44.3999977111816,-50.846061706543,-44,47.1687088012695,14.5999994277954,8.32355403900146,17.9018363952637,16,11.5244347464257,-3.5527136788005e-15,12.2745803365017,1.95943496413627e-15,12.2745803365017,-190.183639526367,-5.58999967575073,0
2.69080471992493,-44.3199996948242,-50.846061706543,-44,47.1687088012695,15.2699995040894,8.32355403900146,17.9659821169785,16,12.2856824403985,-3.5527136788005e-15,11.6289248316699,1.95943496413627e-15,11.6289248316699,-196.831632337357,-5.71976029004597,0
2.7267427444458,-44.2999992370605,-50.846061706543,-44,47.1687088012695,15.2699995040894,8.32355403900146,17.9684391021729,16,12.5932500766372,-3.5527136788005e-15,11.3609618614068,1.95943496413627e-15,11.3609618614068,-196.843902587891,-5.71999979019165,0
2.77308416366577,-44.2399978637695,-50.846061706543,-44,47.1687088012695,16.0100002288818,8.32355403900146,18.0165908665153,16,13.107915134163,-3.5527136788005e-15,10.8512713913249,1.95943496413627e-15,10.8512713913249,-202.4803244859,-5.85982006703042,0
2.846919298172,-44.2099990844727,-50.846061706543,-44,47.1687088012695,16.0200004577637,8.32355403900146,18.0248756408691,16,13.6946332621484,-3.5527136788005e-15,10.2279094437721,1.95943496413627e-15,10.2279094437721,-202.507327678698,-5.86032029089531,0
2.87751960754395,-44.2099990844727,-52.2434539794922,-44,34.2489929199219,16.6599998474121,10.2019653320313,18.1025192896469,16,14.0470586639143,-3.5527136788005e-15,9.79612877130291,1.95943496413627e-15,9.79612877130291,-211.664720150429,-6.00888505618908,0
2.99731850624084,-44.2099990844727,-52.2434539794922,-44,34.2489929199219,17.0900001525879,10.2019653320313,18.0859136569098,16,14.8462707245236,-3.5527136788005e-15,8.79619601485437,1.95943496413627e-15,8.79619601485437,-208.356415863254,-6.18988133415675,0
3.04755902290344,-44.2099990844727,-52.2434539794922,-44,34.2489929199219,17.1000003814697,10.2019653320313,18.0835418701172,16,15.3181678709869,-3.5527136788005e-15,8.11560587397951,1.95943496413627e-15,8.11560587397951,-208.354187011719,-6.19000005722046,0
3.11821722984314,-44.2199974060059,-52.2434539794922,-44,34.2489929199219,17.4899997711182,10.2019653320313,18.0080150076317,16,15.7467724307143,-3.5527136788005e-15,7.45149676043577,1.95943496413627e-15,7.45149676043577,-200.789838281908,-6.36510328211316,0
3.13232898712158,-44.2199974060059,-52.2434539794922,-44,34.2489929199219,17.5,10.2019653320313,18.0057830810547,16,15.9674224437401,-3.5527136788005e-15,7.05224895632418,1.95943496413627e-15,7.05224895632418,-200.578308105469,-6.36999988555908,0
3.17865705490112,-44.2299995422363,-52.2434539794922,-44,34.2489929199219,17.9899997711182,10.2019653320313,18.058557082267,16,16.2383176516953,-3.5527136788005e-15,6.56304332070004,1.95943496413627e-15,6.56304332070004,-206.557801851193,-6.54918675489037,0
3.21671509742737,-44.2299995422363,-54.1701164245605,-44,20.5177364349365,18,10.050630569458,18.0658493041992,16,16.4853181998625,-3.5527136788005e-15,6.07716910566096,1.95943496413627e-15,6.07716910566096,-206.584930419922,-6.54999971389771,0
3.29257011413574,-44.2199974060059,-54.1701164245605,-44,20.5177364349365,18.4599990844727,10.050630569458,18.1918963619877,16,16.8317317622915,-3.5527136788005e-15,5.24138295272859,1.95943496413627e-15,5.24138295272859,-219.531705269993,-6.74364500538988,0
3.32362008094788,-44.2000007629395,-54.1701164245605,-44,20.5177364349365,18.4599990844727,10.050630569458,18.1995658874512,16,17.0252975442741,-3.5527136788005e-15,4.72505679250729,1.95943496413627e-15,4.72505679250729,-219.956588745117,-6.75,0
3.39496684074402,-44.1699981689453,-54.1701164245605,-44,20.5177364349365,18.0499992370605,10.050630569458,18.3012679077816,16,17.3382619458589,-3.5527136788005e-15,3.79237219573902,1.95943496413627e-15,3.79237219573902,-232.072142402209,-6.94954867234207,0
3.41852688789368,-44.1499977111816,-54.1701164245605,-44,20.5177364349365,18.0599994659424,10.050630569458,18.3209953308105,16,17.4479479970266,-3.5527136788005e-15,3.42748814652692,1.95943496413627e-15,3.42748814652692,-232.099533081055,-6.94999980926514,0
3.4732038974762,-44.1100006103516,-54.1701164245605,-44,20.5177364349365,17.5499992370605,10.050630569458,18.4811283317901,16,17.6053704539653,-3.5527136788005e-15,2.64336425182201,1.95943496413627e-15,2.64336425182201,-249.484672549384,-7.1495752796731,0
3.52348709106445,-44.0900001525879,-54.9443626403809,-44,7.11999130249023,17.5499992370605,10.9398670196533,18.4952163696289,16,17.7141809105249,-3.5527136788005e-15,2.04668331990442,1.95943496413627e-15,2.04668331990442,-249.521636962891,-7.14999961853027,0
3.5726056098938,-44.0799980163574,-54.9443626403809,-44,7.11999130249023,17.2099990844727,10.9398670196533,18.7784695256866,16,17.8410712516731,-3.5527136788005e-15,1.22028520476372,1.95943496413627e-15,1.22028520476372,-280.634987822147,-7.36882823491649,0
3.64300179481506,-44.0799980163574,-54.9443626403809,-44,7.11999130249023,17.2099990844727,10.9398670196533,18.8080158233643,16,17.9484764677747,-3.5527136788005e-15,0.264746447097185,1.95943496413627e-15,0.264746447097185,-280.801574707031,-7.36999988555908,0
3.67299699783325,-44.0699996948242,-54.9443626403809,-44,7.11999130249023,17.0499992370605,10.9398670196533,18.9844715810062,16,17.9667302473098,-3.5527136788005e-15,-0.288691895325255,1.95943496413627e-15,-0.288691895325255,-301.504248831807,-7.59924302951489,0
3.73627853393555,-44.0499992370605,-54.9443626403809,-44,7.11999130249023,17.0699996948242,10.9398670196533,19.0157260894775,16,17.9912849438886,-3.5527136788005e-15,-1.29211969284973,1.95943496413627e-15,-1.29211969284973,-301.572601318359,-7.59999990463257,0
3.7746148109436,-44.0400009155273,-54.9443626403809,-44,7.11999130249023,16.9300003051758,10.9398670196533,19.2194284543012,16,17.9867475347422,-3.5527136788005e-15,-1.87141984331064,1.95943496413627e-15,-1.87141984331064,-326.078881169642,-7.85360900022465,0
3.81782197952271,-44.0299987792969,-54.9443626403809,-44,7.11999130249023,16.9300003051758,10.9398670196533,19.2669639587402,16,17.9355137350574,-3.5527136788005e-15,-2.58964801916821,1.95943496413627e-15,-2.58964801916821,-326.696411132813,-7.85999965667725,0
3.89526581764221,-43.0799980163574,-54.9443626403809,-44,7.11999130249023,16.6800003051758,10.9398670196533,19.5227642385829,16,17.7898853683539,-3.5527136788005e-15,-3.77329013576515,1.95943496413627e-15,-3.77329013576515,-353.520501352451,-8.12920313274048,0
3.93790221214294,-43.0900001525879,-55.0516891479492,-44,-10.681188583374,16.6800003051758,11.3321151733398,19.5359992980957,16,17.7016774639669,-3.5527136788005e-15,-4.36497578348571,1.95943496413627e-15,-4.36497578348571,-353.599914550781,-8.13000011444092,0
3.99418354034424,-39.7799987792969,-55.0516891479492,-44,-10.681188583374,16.2600002288818,11.3321151733398,19.7090901641705,16,17.520075776462,-3.5527136788005e-15,-5.17173739131327,1.95943496413627e-15,-5.17173739131327,-370.983830772431,-8.42387082083846,0
4.02923583984375,-39.7799987792969,-55.0516891479492,-44,-10.681188583374,16.2600002288818,11.3321151733398,19.7193794250488,16,17.4596506605232,-3.5527136788005e-15,-5.48294123522862,1.95943496413627e-15,-5.48294123522862,-371.937927246094,-8.4399995803833,0
4.07373142242432,-36.1199989318848,-55.0516891479492,-44,-10.681188583374,15.8599996566772,11.3321151733398,19.887609966266,16,17.2110097115813,-3.5527136788005e-15,-6.23988007440571,1.95943496413627e-15,-6.23988007440571,-389.403039915095,-8.74709331888209,0
4.13669872283936,-36.1100006103516,-55.0516891479492,-44,-10.681188583374,15.8399991989136,11.3321151733398,19.9013710021973,16,16.9602648729284,-3.5527136788005e-15,-6.96807859536949,1.95943496413627e-15,-6.96807859536949,-390.137084960938,-8.76000022888184,0
4.16997408866882,-31.8799991607666,-55.0516891479492,-44,-10.681188583374,15.3499994277954,11.3321151733398,19.9554140092527,16,16.7612727777875,-3.5527136788005e-15,-7.44444226152049,1.95943496413627e-15,-7.44444226152049,-396.953254725737,-9.08602433467391,0
4.22410845756531,-31.8499984741211,-55.0516891479492,-44,-10.681188583374,15.3199996948242,11.3321151733398,19.9703636169434,16,16.5343214969019,-3.5527136788005e-15,-7.91839885505132,1.95943496413627e-15,-7.91839885505132,-397.036376953125,-9.09000015258789,0
4.27828407287598,-27.0499992370605,-52.172306060791,-44,-23.2717208862305,14.6599998474121,11.8659725189209,20.0004521099596,16,16.1389151712415,-3.5527136788005e-15,-8.63462548901619,1.95943496413627e-15,-8.63462548901619,-400.468939428289,-9.42876812709813,0
4.32422685623169,-27.0299987792969,-52.172306060791,-44,-23.2717208862305,14.6399993896484,11.8659725189209,20.0048141479492,16,15.8369578640469,-3.5527136788005e-15,-9.12722121118223,1.95943496413627e-15,-9.12722121118223,-400.481414794922,-9.42999935150146,0
4.37162256240845,-21.25,-52.172306060791,-44,-23.2717208862305,13.9799995422363,11.8659725189209,20.0105290755347,16,15.3474940507573,-3.5527136788005e-15,-9.82755041106217,1.95943496413627e-15,-9.82755041106217,-401.106772891322,-9.78875229534135,0
4.43618249893188,-21.1999988555908,-52.172306060791,-44,-23.2717208862305,13.9499998092651,11.8659725189209,20.0110893249512,16,14.7997310586096,-3.5527136788005e-15,-10.5013257158227,1.95943496413627e-15,-10.5013257158227,-401.108947753906,-9.78999996185303,0
4.49017930030823,-14.7599992752075,-52.172306060791,-44,-23.2717208862305,13.1799993515015,11.8659725189209,20.0019571699142,16,14.2224982148334,-3.5527136788005e-15,-11.1160193884568,1.95943496413627e-15,-11.1160193884568,-400.14518626341,-10.1849784673005,0
4.54120874404907,-14.7399997711182,-52.172306060791,-44,-23.2717208862305,13.1599998474121,11.8659725189209,19.9602859766204,16,13.8515518708094,-3.5527136788005e-15,-11.4682090185223,1.95943496413627e-15,-11.4682090185223,-400.132934570313,-10.1899995803833,0
4.57034087181091,-8.26000022888184,-52.172306060791,-44,-23.2717208862305,12.2699995040894,11.8659725189209,19.9561233520508,16,13.487315535812,-3.5527136788005e-15,-11.7804357012202,1.95943496413627e-15,-11.7804357012202,-395.645784511012,-10.6366697025706,0
4.61967492103577,-8.25,-52.172306060791,-44,-23.2717208862305,12.25,11.8659725189209,19.9561233520508,16,13.1024560487556,-3.5527136788005e-15,-12.0868648601214,1.95943496413627e-15,-12.0868648601214,-395.612335205078,-10.6399993896484,0
4.66930890083313,-2.11999988555908,-52.172306060791,-44,-23.2717208862305,11.210000038147,11.8659725189209,19.858531022165,16,12.5305880052506,-3.5527136788005e-15,-12.4917786497027,1.95943496413627e-15,-12.4917786497027,-385.019583022241,-11.1188318593288,0
4.72247505187988,-2.11999988555908,-43.1513748168945,-44,-40.8932800292969,11.1700000762939,16.0793743133545,19.8499374389648,16,12.1414166817076,-3.5527136788005e-15,-12.7317430279294,1.95943496413627e-15,-12.7317430279294,-384.993743896484,-11.1199998855591,0
4.80611634254456,3,-43.1513748168945,-44,-40.8932800292969,10.0199995040894,16.0793743133545,19.5311045520132,16,11.5026178555001,-3.5527136788005e-15,-13.0627496225026,1.95943496413627e-15,-13.0627496225026,-351.956018179128,-11.6265199740174,0
4.82942819595337,3,-43.1513748168945,-44,-40.8932800292969,10,16.0793743133545,19.5042457580566,16,11.3251889319607,-3.5527136788005e-15,-13.141644024079,1.95943496413627e-15,-13.141644024079,-350.424560546875,-11.6499996185303,0
4.87530612945557,7.14999961853027,-43.1513748168945,-44,-40.8932800292969,8.69999980926514,16.0793743133545,19.0547729072274,16,10.8547298920033,-3.5527136788005e-15,-13.3346984811616,1.95943496413627e-15,-13.3346984811616,-303.250586255606,-12.2060556186156,0
4.93084001541138,7.14999961853027,-43.1513748168945,-44,-40.8932800292969,8.63999938964844,16.0793743133545,19.0291595458984,16,10.3869835164174,-3.5527136788005e-15,-13.4868780546144,1.95943496413627e-15,-13.4868780546144,-302.915954589844,-12.210000038147,0
5.0179398059845,10.8000001907349,-43.1513748168945,-44,-40.8932800292969,7.29999971389771,16.0793743133545,18.6396738780747,16,9.82720945505499,-3.5527136788005e-15,-13.6211778133216,1.95943496413627e-15,-13.6211778133216,-262.231850982513,-12.7885754612386,0
5.0710780620575,13.4399995803833,-43.1513748168945,-44,-40.8932800292969,5.84999990463257,16.0793743133545,18.2895486837719,16,9.51735645410536,-3.5527136788005e-15,-13.6563725422426,1.95943496413627e-15,-13.6563725422426,-227.221711149022,-13.3925458013883,0
5.14827394485474,13.4200000762939,-25.2130870819092,-44,-49.2558746337891,5.79999971389771,17.1423034667969,18.2678985595703,16,9.20847226329952,-3.5527136788005e-15,-13.6466026240667,1.95943496413627e-15,-13.6466026240667,-226.789855957031,-13.3999996185303,0
5.17641496658325,15.0899991989136,-25.2130870819092,-44,-49.2558746337891,4.17999982833862,17.1423034667969,17.9545257367173,16,9.0271071135854,-3.5527136788005e-15,-13.6195422430313,1.95943496413627e-15,-13.6195422430313,-191.125901577971,-14.0089305566391,0
5.22334218025208,15.0699996948242,-25.2130870819092,-44,-49.2558746337891,4.15000009536743,17.1423034667969,17.9106330871582,16,8.86001457796273,-3.5527136788005e-15,-13.5803748136425,1.95943496413627e-15,-13.5803748136425,-191.06330871582,-14.0099992752075,0
5.27676010131836,16.1999988555908,-25.2130870819092,-44,-49.2558746337891,1.92999994754791,17.1423034667969,17.724214390027,16,8.59964055736401,-3.5527136788005e-15,-13.4945081369279,1.95943496413627e-15,-13.4945081369279,-168.019956392371,-14.6248425794243,0
5.32832908630371,16.1999988555908,-25.2130870819092,-44,-49.2558746337891,1.9099999666214,17.1423034667969,17.6782665252686,16,8.36443925033488,-3.5527136788005e-15,-13.3661845047568,1.95943496413627e-15,-13.3661845047568,-167.82666015625,-14.6300001144409,0
5.37967681884766,16.8699989318848,-10.7528896331787,-44,-51.4210205078125,1.23000001907349,17.9902896881104,17.6354221988393,16,8.21781569552413,-3.5527136788005e-15,-13.2601503242113,1.95943496413627e-15,-13.2601503242113,-163.391271751326,-15.2593421166999,0
5.42122602462769,16.8799991607666,-10.7528896331787,-44,-51.4210205078125,1.22000002861023,17.9902896881104,17.6331615447998,16,8.11202343017626,-3.5527136788005e-15,-13.1724943289664,1.95943496413627e-15,-13.1724943289664,-163.316162109375,-15.2699995040894,0
5.52184820175171,17.1000003814697,-10.7528896331787,-44,-51.4210205078125,-0.0399999991059303,17.9902896881104,17.4436041042185,16,7.91774415641975,-3.5527136788005e-15,-12.9513742635933,1.95943496413627e-15,-12.9513742635933,-142.552697984121,-15.9094319068213,0
5.59167456626892,16.9400005340576,-10.7528896331787,-44,-51.4210205078125,-1.26999998092651,17.9902896881104,17.081492645737,16,7.80097408127294,-3.5527136788005e-15,-12.7218809880517,1.95943496413627e-15,-12.7218809880517,-106.812324177992,-16.5436439226517,0
5.61608695983887,16.9599990844727,-10.7528896331787,-44,-51.4210205078125,-1.26999998092651,17.9902896881104,17.0589027404785,16,7.77003287078818,-3.5527136788005e-15,-12.6545225607919,1.95943496413627e-15,-12.6545225607919,-105.890274047852,-16.5599994659424,0
5.67481136322021,16.5499992370605,-10.7528896331787,-44,-51.4210205078125,-2.60999989509583,17.9902896881104,16.7173154795469,16,7.70967691604885,-3.5527136788005e-15,-12.5146592330395,1.95943496413627e-15,-12.5146592330395,-69.8988655702498,-17.1984986446657,0
5.72750425338745,16.5900001525879,-10.7528896331787,-44,-51.4210205078125,-2.60999989509583,17.9902896881104,16.6981430053711,16,7.69079727040293,-3.5527136788005e-15,-12.4293220874997,1.95943496413627e-15,-12.4293220874997,-69.8143005371094,-17.1999988555908,0
5.77736735343933,16.1499996185303,4.26345920562744,-44,-53.8649635314941,-3.86999988555908,14.9462976455688,16.4181312721364,16,7.6773705289321,-3.5527136788005e-15,-12.3096533230157,1.95943496413627e-15,-12.3096533230157,-37.6888250825763,-17.8095399044922,0
5.82129383087158,16.1900005340576,4.26345920562744,-44,-53.8649635314941,-3.85999989509583,14.9462976455688,16.3766460418701,16,7.66596760484579,-3.5527136788005e-15,-12.2206704120662,1.95943496413627e-15,-12.2206704120662,-37.6646041870117,-17.8099994659424,0
5.87151122093201,15.6300001144409,4.26345920562744,-44,-53.8649635314941,-4.98000001907349,14.9462976455688,16.044667376274,16,7.66889180764665,-3.5527136788005e-15,-12.1193117779058,1.95943496413627e-15,-12.1193117779058,7.59260399094678,-18.3790054346092,0
5.92954254150391,15.6599998474121,4.26345920562744,-44,-53.8649635314941,-4.96999979019165,14.9462976455688,15.9232835769653,16,7.68298296670405,-3.5527136788005e-15,-12.0453019442708,1.95943496413627e-15,-12.0453019442708,7.6716423034668,-18.3799991607666,0
5.95241141319275,15.039999961853,4.26345920562744,-44,-53.8649635314941,-6.19000005722046,14.9462976455688,15.6733357732731,16,7.69769815229912,-3.5527136788005e-15,-11.9832420749898,1.95943496413627e-15,-11.9832420749898,52.1319659666812,-18.8532106057569,0
5.99119305610657,15.0599994659424,4.26345920562744,-44,-53.8649635314941,-6.19000005722046,14.9462976455688,15.4441156387329,16,7.71597664684205,-3.5527136788005e-15,-11.9029311109262,1.95943496413627e-15,-11.9029311109262,55.588436126709,-18.8899993896484,0
6.03638291358948,15.0799999237061,4.26345920562744,-44,-53.8649635314941,-6.19000005722046,14.9462976455688,15.4441156387329,16,7.72981034726641,-3.5527136788005e-15,-11.8285818805297,1.95943496413627e-15,-11.8285818805297,55.588436126709,-18.8899993896484,0
6.07547068595886,14.3199996948242,4.26345920562744,-44,-53.8649635314941,-7.52999973297119,14.9462976455688,15.0756160814477,16,7.75041592883395,-3.5527136788005e-15,-11.720272388592,1.95943496413627e-15,-11.720272388592,108.176876001602,-19.3491417294678,0
6.16324996948242,13.3400001525879,13.0547399520874,-44,-51.6772994995117,-8.71000003814697,10.1779193878174,14.7800589659016,16,7.81629337997652,-3.5527136788005e-15,-11.5359108798069,1.95943496413627e-15,-11.5359108798069,122.429195544353,-19.7489307432646,0
6.19199991226196,13.3599996566772,13.0547399520874,-44,-51.6772994995117,-8.71000003814697,10.1779193878174,14.7753286361694,16,7.84377372386718,-3.5527136788005e-15,-11.4571751039483,1.95943496413627e-15,-11.4571751039483,122.467132568359,-19.75,0
6.22713041305542,13.3699998855591,13.0547399520874,-44,-51.6772994995117,-8.71000003814697,10.1779193878174,14.7753286361694,16,7.86814556493154,-3.5527136788005e-15,-11.3901642997252,1.95943496413627e-15,-11.3901642997252,122.467132568359,-19.75,0
6.26895523071289,12.210000038147,13.0547399520874,-44,-51.6772994995117,-9.71999931335449,10.1779193878174,14.6625748299746,16,7.9270669083602,-3.5527136788005e-15,-11.2557749877595,1.95943496413627e-15,-11.2557749877595,135.21760373517,-20.1287874245027,0
6.32666230201721,12.2299995422363,13.0547399520874,-44,-51.6772994995117,-9.71000003814697,10.1779193878174,14.6474161148071,16,7.98315073030835,-3.5527136788005e-15,-11.1457350411143,1.95943496413627e-15,-11.1457350411143,135.258392333984,-20.1299991607666,0
6.39085674285889,10.9699993133545,13.0547399520874,-44,-51.6772994995117,-10.5599994659424,10.1779193878174,14.53952731489,16,8.08151705114405,-3.5527136788005e-15,-10.9755965293422,1.95943496413627e-15,-10.9755965293422,147.169568321039,-20.4755419120153,0
6.4297206401825,10.9699993133545,13.0547399520874,-44,-51.6772994995117,-10.5599994659424,10.1779193878174,14.5267677307129,16,8.11738632672878,-3.5527136788005e-15,-10.9154521395592,1.95943496413627e-15,-10.9154521395592,147.323226928711,-20.4799995422363,0
6.49910712242126,9.77999973297119,13.0547399520874,-44,-51.6772994995117,-11.3499994277954,10.1779193878174,14.3771723057866,16,8.20948028299117,-3.5527136788005e-15,-10.764673539744,1.95943496413627e-15,-10.764673539744,163.434962763551,-20.7887009448847,0
6.54887723922729,9.78999996185303,13.0547399520874,-44,-51.6772994995117,-11.3499994277954,10.1779193878174,14.1857302759238,16,8.26139517801432,-3.5527136788005e-15,-10.6954267295932,1.95943496413627e-15,-10.6954267295932,182.454032544246,-21.0655777111632,0
6.57264614105225,8.71000003814697,13.0547399520874,-44,-51.6772994995117,-11.9799995422363,10.1779193878174,14.1585121154785,16,8.29362219473663,-3.5527136788005e-15,-10.6519875608474,1.95943496413627e-15,-10.6519875608474,184.148788452148,-21.0900001525879,0
6.62370109558105,8.72000026702881,13.0547399520874,-44,-51.6772994995117,-11.9799995422363,10.1779193878174,14.1585121154785,16,8.35953172033637,-3.5527136788005e-15,-10.5660494303258,1.95943496413627e-15,-10.5660494303258,184.148788452148,-21.0900001525879,0
6.67170071601868,7.76999998092651,15.9495553970337,-44,-48.6635704040527,-12.5299997329712,0.830059349536896,13.963318102162,16,8.42162504542089,-3.5527136788005e-15,-10.4888563749323,1.95943496413627e-15,-10.4888563749323,211.845545208703,-21.3086073067261,0
6.73105311393738,7.76999998092651,15.9495553970337,-44,-48.6635704040527,-12.5299997329712,0.830059349536896,13.6380366851554,16,8.48855846511264,-3.5527136788005e-15,-10.4170465746549,1.95943496413627e-15,-10.4170465746549,238.551406276616,-21.4792031705872,0
6.8059446811676,6.90999984741211,15.9495553970337,-44,-48.6635704040527,-12.9699993133545,0.830059349536896,13.6132373809814,16,8.56096378429254,-3.5527136788005e-15,-10.3349645339961,1.95943496413627e-15,-10.3349645339961,238.67626953125,-21.4799995422363,0
6.81853580474854,6.90999984741211,15.9495553970337,-44,-48.6635704040527,-12.9799995422363,0.830059349536896,13.6132373809814,16,8.57596057512531,-3.5527136788005e-15,-10.3195020272206,1.95943496413627e-15,-10.3195020272206,238.67626953125,-21.4799995422363,0
6.85357356071472,6.15000009536743,15.9495553970337,-44,-48.6635704040527,-13.3499994277954,0.830059349536896,13.4876487604314,16,8.60063357089385,-3.5527136788005e-15,-10.2913665191238,1.95943496413627e-15,-10.2913665191238,251.932966025519,-21.5795227914748,0
6.89806628227234,6.15000009536743,15.9495553970337,-44,-48.6635704040527,-13.3499994277954,0.830059349536896,13.480034828186,16,8.63807918383156,-3.5527136788005e-15,-10.2443412756482,1.95943496413627e-15,-10.2443412756482,251.996520996094,-21.5799999237061,0
6.99538040161133,5.48000001907349,15.9495553970337,-44,-48.6635704040527,-13.5599994659424,0.830059349536896,13.4874544635305,16,8.71679383007761,-3.5527136788005e-15,-10.1649331447853,1.95943496413627e-15,-10.1649331447853,251.228316208071,-21.6199600940875,0
7.07303690910339,4.83999967575073,13.3839712142944,-44,-49.4110641479492,-13.4899997711182,-4.72642850875854,13.6060390892316,16,8.79019178385243,-3.5527136788005e-15,-10.1027879821369,1.95943496413627e-15,-10.1027879821369,238.914796762982,-21.6100188889381,0
7.11259865760803,4.82999992370605,13.3839712142944,-44,-49.4110641479492,-13.4899997711182,-4.72642850875854,13.6111011505127,16,8.82054651982173,4.68283135097786e-06,-10.0843898045016,1.95943496413627e-15,-10.0843898045016,238.889892578125,-21.6099987030029,0
7.15594029426575,4.34999990463257,13.3839712142944,-44,-49.4110641479492,-13.1199998855591,-4.72642850875854,13.7111920534277,16,8.86304944213527,4.99999987368938e-06,-10.0563734709756,1.95943496413627e-15,-10.0563734709756,228.171084829986,-21.5502316980162,0
7.19268250465393,4.33999967575073,13.3839712142944,-44,-49.4110641479492,-13.1300001144409,-4.72642850875854,13.7187061309814,16,8.89651942853593,4.99999987368938e-06,-10.0388369085468,1.95943496413627e-15,-10.0388369085468,228.12939453125,-21.5499992370605,0
7.24769520759583,4.33999967575073,13.3839712142944,-44,-49.4110641479492,-13.1300001144409,-4.72642850875854,13.7187061309814,16,8.92075845221032,4.99999987368938e-06,-10.0330519711803,1.95943496413627e-15,-10.0330519711803,228.12939453125,-21.5499992370605,0
7.30970907211304,3.90999984741211,13.3839712142944,-44,-49.4110641479492,-12.6099996566772,-4.72642850875854,13.8337856457868,16,8.97253216634188,4.99999987368938e-06,-10.0099107229187,1.95943496413627e-15,-10.0099107229187,216.60570733648,-21.4402995442263,0
7.32709383964539,3.90999984741211,13.3839712142944,-44,-49.4110641479492,-12.6099996566772,-4.72642850875854,13.8342590332031,16,8.98810519363534,0.00110820065339525,-10.0058444805021,1.95943496413627e-15,-10.0058444805021,216.574096679688,-21.439998626709,0
7.37496709823608,3.50999999046326,13.3839712142944,-44,-49.4110641479492,-11.9299993515015,-4.72642850875854,13.9864676687684,16,9.03699472383024,0.00134800001978874,-10.0028020936888,1.95943496413627e-15,-10.0028020936888,201.319752146345,-21.3002818653295,0
7.41338038444519,3.50999999046326,13.3839712142944,-44,-49.4110641479492,-11.9299993515015,-4.72642850875854,13.9871110916138,16,9.0749695906651,0.00134800001978874,-9.99481687001717,1.95943496413627e-15,-9.99481687001717,201.28889465332,-21.2999992370605,0
7.53408527374268,3.10999989509583,13.3839712142944,-44,-49.4110641479492,-11.1899995803833,-4.72642850875854,14.0630465660465,15.9999981447538,9.16766757474228,0.00836785580296441,-10.0055308012826,1.95943455218886e-15,-10.0055308012826,193.511925321935,-21.1204363394289,0
7.57170271873474,2.83999991416931,5.46082210540771,-44,-45.872688293457,-10.5,-10.3147382736206,14.1386405820172,15.9999980926514,9.24002071204448,0.00856500025838614,-10.0016114510395,1.95943454061979e-15,-10.0016114510395,185.866166667205,-20.9285672807003,0
7.63057255744934,2.83999991416931,5.46082210540771,-44,-45.872688293457,-10.5100002288818,-10.3147382736206,14.1447515487671,15.9999980926514,9.29114262939442,0.00856500025838614,-10.0065282010117,1.95943454061979e-15,-10.0065282010117,185.524841308594,-20.9200000762939,0
7.6907742023468,2.44000005722046,5.46082210540771,-44,-45.872688293457,-9.92000007629395,-10.3147382736206,14.1899614593682,15.9999980926514,9.38443693855244,0.00856500025838614,-10.022770436561,1.95943454061979e-15,-10.022770436561,180.936203964382,-20.6902881818127,0
7.74300527572632,2.44000005722046,5.46082210540771,-44,-45.872688293457,-9.92000007629395,-10.3147382736206,14.3376225214601,15.9999980926514,9.43422018716604,0.00856500025838614,-10.0209898141845,1.95943454061979e-15,-10.0209898141845,166.178456349375,-20.4950589641108,0
7.76811504364014,1.99000000953674,5.46082210540771,-44,-45.872688293457,-9.1899995803833,-10.3147382736206,14.372314453125,15.9999980926514,9.4912295633222,0.00856500025838614,-10.0244578671621,1.95943454061979e-15,-10.0244578671621,162.7685546875,-20.4499988555908,0
7.84157299995422,1.99000000953674,5.46082210540771,-44,-45.872688293457,-9.1899995803833,-10.3147382736206,14.372314453125,15.9998896260311,9.57477103668063,0.0582560384956914,-10.0414884986433,1.95942129418449e-15,-10.0414884986433,162.7685546875,-20.4499988555908,0
7.88468623161316,1.8199999332428,5.46082210540771,-44,-45.872688293457,-8.51999950408936,-10.3147382736206,14.5365751965583,15.9998836517334,9.62610977063555,0.0609930008649826,-10.0454402254065,1.95942056457617e-15,-10.0454402254065,144.679258046588,-20.1831822654405,0
7.93032670021057,1.8199999332428,3.85962629318237,-44,-42.9850196838379,-8.51999950408936,-11.8759078979492,14.5553646087646,15.9998836517334,9.7113617759314,0.0609930008649826,-10.046895161245,1.95942056457617e-15,-10.046895161245,144.463531494141,-20.1800003051758,0
8.04334950447083,1.33999991416931,3.85962629318237,-44,-42.9850196838379,-7.81999969482422,-11.8759078979492,14.6913183774106,15.9998836517334,9.80763099314473,0.0609930008649826,-10.0718549219053,1.95942056457617e-15,-10.0718549219053,130.4853132734,-19.9101519898805,0
8.09426188468933,1.03999996185303,3.85962629318237,-44,-42.9850196838379,-7.12999963760376,-11.8759078979492,14.830744376511,15.9998836517334,9.90294467110668,0.0609930008649826,-10.0881270058793,1.95942056457617e-15,-10.0881270058793,115.337465847104,-19.6249809985524,0
8.13428139686584,1.03999996185303,3.85962629318237,-44,-42.9850196838379,-7.12999963760376,-11.8759078979492,14.849271774292,15.9989419321449,9.93982699690487,0.177640348735521,-10.094099869721,1.95930524068761e-15,-10.094099869721,115.072822570801,-19.6199989318848,0
8.15746378898621,1.24000000953674,3.85962629318237,-44,-42.9850196838379,-6.48999977111816,-11.8759078979492,14.9846703607025,15.9987821578979,9.98866207856539,0.197430998086929,-10.1096249325315,1.95928567457931e-15,-10.1096249325315,99.9446402574758,-19.321993424602,0
8.21800875663757,1.24000000953674,3.85962629318237,-44,-42.9850196838379,-6.48999977111816,-11.8759078979492,15.0066423416138,15.9987821578979,10.0602395141276,0.197430998086929,-10.1454539102173,1.95928567457931e-15,-10.1454539102173,99.3357696533203,-19.3099994659424,0
8.27776980400085,1.03999996185303,3.85962629318237,-44,-42.9850196838379,-5.76999998092651,-11.8759078979492,15.2045887701983,15.9987821578979,10.1282996911947,0.197430998086929,-10.1728549665818,1.95928567457931e-15,-10.1728549665818,77.8292268059925,-19.0109372739815,0
8.31743335723877,1.03999996185303,3.85962629318237,-44,-42.9850196838379,-5.76999998092651,-11.8759078979492,15.2223815917969,15.9987821578979,10.1826404165756,0.197430998086929,-10.1924345466377,1.95928567457931e-15,-10.1924345466377,77.7618408203125,-19.0100002288818,0
8.35089087486267,0.769999980926514,3.85962629318237,-44,-42.9850196838379,-5.04999971389771,-11.8759078979492,15.4280186282633,15.9987821578979,10.2310506740019,0.197430998086929,-10.2173362558438,1.95928567457931e-15,-10.2173362558438,53.5271012291361,-18.7011925969735,0
8.40152835845947,0.769999980926514,3.85962629318237,-44,-42.9850196838379,-5.04999971389771,-11.8759078979492,15.4656658172607,15.9987821578979,10.2713558335171,0.197430998086929,-10.2527097726366,1.95928567457931e-15,-10.2527097726366,53.4334182739258,-18.6999988555908,0
8.44838929176331,0.769999980926514,3.85962629318237,-44,-42.9850196838379,-5.04999971389771,-11.8759078979492,15.4656658172607,15.9987821578979,10.3117773542731,0.197430998086929,-10.2891561503077,1.95928567457931e-15,-10.2891561503077,53.4334182739258,-18.6999988555908,0
8.4678692817688,0.719999969005585,2.01265263557434,-44,-43.7151527404785,-4.29999971389771,-11.6336011886597,15.6126698133036,15.9987821578979,10.3536392342458,0.197430998086929,-10.3172212072394,1.95928567457931e-15,-10.3172212072394,35.2105471251814,-18.4018212400628,0
8.53843545913696,0.719999969005585,2.01265263557434,-44,-43.7151527404785,-4.29999971389771,-11.6336011886597,15.6490077972412,15.9882893646723,10.4222795446348,0.599135002205567,-10.3579991663987,1.95800065616292e-15,-10.3579991663987,35.0992202758789,-18.3999996185303,0
8.58699297904968,2.62999987602234,2.01265263557434,-42,-43.7151527404785,-3.60999989509583,-11.6336011886597,15.8383143637503,15.9872732162476,10.4725346794236,0.638037025928497,-10.4107968306533,1.95787621175508e-15,-10.4107968306533,13.6660807081643,-18.1008884176033,0
8.62791609764099,2.62999987602234,2.01265263557434,-42,-43.7151527404785,-3.60999989509583,-11.6336011886597,15.8639755249023,15.9872732162476,10.4948792670084,0.638037025928497,-10.4371155350163,1.95787621175508e-15,-10.4371155350163,13.6024475097656,-18.1000003814697,0
8.65565133094788,2.69000005722046,2.01265263557434,-42,-43.7151527404785,-2.90999984741211,-11.6336011886597,16.0846940735225,15.9872732162476,10.5331152902244,0.638037025928497,-10.4721067264057,1.95787621175508e-15,-10.4721067264057,-8.93365580659671,-17.8103547130674,0
8.69265723228455,2.70000004768372,2.01265263557434,-42,-43.7151527404785,-2.90999984741211,-11.6336011886597,16.0896129608154,15.9872732162476,10.5693493398075,0.638037025928497,-10.4962185671919,1.95787621175508e-15,-10.4962185671919,-8.96129608154297,-17.8099994659424,0
8.75086998939514,3.69999980926514,2.01265263557434,-41,-43.7151527404785,-2.3899998664856,-11.6336011886597,16.1602854208407,15.9792499403343,10.6237033648539,0.80900647637031,-10.545525918413,1.95689371382002e-15,-10.545525918413,-18.2029883508229,-17.5203347402836,0
8.85003399848938,3.69999980926514,2.01265263557434,-41,-43.7151527404785,-2.3899998664856,-11.6336011886597,16.3642950521475,15.9767627716064,10.6726799534551,0.862006008625031,-10.6124475502194,1.95658914519173e-15,-10.6124475502194,-18.2136535644531,-17.5200004577637,0
8.88700461387634,3.8199999332428,1.2330322265625,-41,-43.2242431640625,-1.87000000476837,-10.1338701248169,16.3755493164063,15.9767627716064,10.7120099357887,0.862006008625031,-10.6535420788882,1.95658914519173e-15,-10.6535420788882,-37.5346561899317,-17.2402932956771,0
8.96382427215576,3.80999994277954,1.2330322265625,-41,-43.2242431640625,-1.43999993801117,-10.1338701248169,16.4714136804761,15.9767627716064,10.7579327253349,0.862006008625031,-10.6853298553233,1.95658914519173e-15,-10.6853298553233,-47.7171813572839,-16.980080251806,0
8.98979139328003,3.80999994277954,1.2330322265625,-41,-43.2242431640625,-1.43999993801117,-10.1338701248169,16.4772033691406,15.9767627716064,10.7808185801724,0.862006008625031,-10.7052200459764,1.95658914519173e-15,-10.7052200459764,-47.7203369140625,-16.9799995422363,0
9.06137490272522,5.1399998664856,1.2330322265625,-40,-43.2242431640625,-1.19999992847443,-10.1338701248169,16.4661061580528,15.9607662435639,10.8051324338603,1.11867231544869,-10.7482479898123,1.95463007872672e-15,-10.7482479898123,-46.5697999493181,-16.7202521981669,0
9.11844301223755,5.15000009536743,1.2330322265625,-40,-43.2242431640625,-1.19999992847443,-10.1338701248169,16.4656867980957,15.9601583480835,10.8297030858826,1.12842607498169,-10.7836169498427,1.95455563084361e-15,-10.7836169498427,-46.5686798095703,-16.7199993133545,0
9.1619086265564,5.27999973297119,1.2330322265625,-40,-43.2242431640625,-0.870000004768372,-10.1338701248169,16.5390648989735,15.9601583480835,10.8622203531364,1.12842607498169,-10.8130073167731,1.95455563084361e-15,-10.8130073167731,-54.7996298586186,-16.4929260251791,0
9.23292326927185,5.27999973297119,1.2330322265625,-40,-43.2242431640625,-0.870000004768372,-10.1338701248169,16.5490570068359,15.9369165243548,10.8883062550216,1.41723975710072,-10.8281084818148,1.95170930944054e-15,-10.8281084818148,-54.9057006835938,-16.4899997711182,0
9.25598120689392,5.27999973297119,1.2330322265625,-40,-43.2242431640625,-0.870000004768372,-10.1338701248169,16.5827020318733,15.9352226257324,10.9016714163397,1.43828892707825,-10.8312848401301,1.95150186531052e-15,-10.8312848401301,-54.9057006835938,-16.4899997711182,0
9.29710793495178,6.71999979019165,0.721256911754608,-39,-42.0412673950195,-0.699999988079071,-6.82547426223755,16.5862045288086,15.9352226257324,10.9393899638223,1.43828892707825,-10.8455782385269,1.95150186531052e-15,-10.8455782385269,-58.6084374287594,-16.2707120506429,0
9.32118272781372,6.73000001907349,0.721256911754608,-39,-42.0412673950195,-0.699999988079071,-6.82547426223755,16.5862045288086,15.9352226257324,10.9490927053769,1.43828892707825,-10.849731225685,1.95150186531052e-15,-10.849731225685,-58.6204528808594,-16.2700004577637,0
9.39513492584229,6.62999963760376,0.721256911754608,-39,-42.0412673950195,-0.629999995231628,-6.82547426223755,16.5929786856045,15.9352226257324,10.9847866605289,1.43828892707825,-10.8578322922239,1.95150186531052e-15,-10.8578322922239,-59.3430486509191,-16.0701851960102,0
9.42111086845398,6.62999963760376,0.721256911754608,-39,-42.0412673950195,-0.629999995231628,-6.82547426223755,16.5934371948242,15.8099673682751,10.9941832090145,2.41696209762077,-10.8571210367594,1.93616253769253e-15,-10.8571210367594,-59.3437194824219,-16.0699996948242,0
9.48010993003845,12.2599992752075,0.721256911754608,-35,-42.0412673950195,-0.560000002384186,-6.82547426223755,16.6516666906559,15.7838191986084,11.0202167660332,2.62126898765564,-10.8452630588939,1.93296031409512e-15,-10.8452630588939,-65.333944924803,-15.9036592881027,0
9.52072048187256,12.2699995040894,0.721256911754608,-35,-42.0412673950195,-0.560000002384186,-6.82547426223755,16.6414090231136,15.7838191986084,11.0380472780395,2.62126898765564,-10.8247930755957,1.93296031409512e-15,-10.8247930755957,-65.4657363891602,-15.8999996185303,0
9.57523441314697,12,0.721256911754608,-35,-42.0412673950195,-0.639999985694885,-6.82547426223755,16.630485534668,15.7838191986084,11.0599697482278,2.62126898765564,-10.7984723957062,1.93296031409512e-15,-10.7984723957062,-63.1603257513228,-15.756936090722,0
9.63066291809082,12.0099992752075,0.721256911754608,-35,-42.0412673950195,-0.639999985694885,-6.82547426223755,16.630485534668,15.7838191986084,11.0715644298925,2.62126898765564,-10.7818517470835,1.93296031409512e-15,-10.7818517470835,-63.0485534667969,-15.75,0
9.6672215461731,11.7599992752075,4.93035221099854,-35,-42.4046897888184,-0.759999990463257,-3.71409726142883,16.564753258888,15.7375168589203,11.0816356370374,2.87645887844218,-10.7639572619019,1.92728985626299e-15,-10.7639572619019,-51.0171517552732,-15.6104439157196,0
9.71567726135254,11.7599992752075,4.93035221099854,-35,-42.4046897888184,-0.759999990463257,-3.71409726142883,16.5097885131836,15.6985874176025,11.0926449549218,3.09101390838623,-10.7376829846178,1.92252232708611e-15,-10.7376829846178,-50.9788513183594,-15.6099996566772,0
9.7696213722229,13.7299995422363,4.93035221099854,-33,-42.4046897888184,-0.870000004768372,-3.71409726142883,16.4906068228304,15.6985874176025,11.1128113516788,3.09101390838623,-10.68697806893,1.92252232708611e-15,-10.68697806893,-49.0297611129362,-15.4869151429404,0
9.80747723579407,13.7299995422363,4.93035221099854,-33,-42.4046897888184,-0.870000004768372,-3.71409726142883,16.4892024993896,15.6985874176025,11.1262634401641,3.09101390838623,-10.6538575659214,1.92252232708611e-15,-10.6538575659214,-48.9202499389648,-15.4799995422363,0
9.9417450428009,13.289999961853,4.93035221099854,-33,-42.4046897888184,-1.01999998092651,-3.71409726142883,16.4135965319036,15.6985874176025,11.1488033174758,3.09101390838623,-10.5685431013952,1.92252232708611e-15,-10.5685431013952,-40.4247561236828,-15.2902178843913,0
9.98627543449402,12.9399995803833,7.20859432220459,-33,-41.6055450439453,-1.14999997615814,-1.98043358325958,16.4041500091553,15.6410292284499,11.1661151684604,3.36057629201747,-10.5114125845672,1.9154736230012e-15,-10.5114125845672,-40.4150009155273,-15.289999961853,0
10.0553834438324,14.7699995040894,7.20859432220459,-32,-41.6055450439453,-1.29999995231628,-1.98043358325958,16.4105448032534,15.5919857025146,11.1904368491933,3.59026193618774,-10.4285958863531,1.90946764354479e-15,-10.4285958863531,-42.5270874875697,-15.2205672914506,0
10.1466479301453,14.7699995040894,7.20859432220459,-32,-41.6055450439453,-1.29999995231628,-1.98043358325958,16.4240687206891,15.5919857025146,11.2140046703508,3.59026193618774,-10.3414158528096,1.90946764354479e-15,-10.3414158528096,-42.5443649291992,-15.2199993133545,0
10.1842722892761,14.1899995803833,7.20859432220459,-32,-41.6055450439453,-1.39999997615814,-1.98043358325958,16.3890660516556,15.5919857025146,11.2280450886235,3.59026193618774,-10.2914326708127,1.90946764354479e-15,-10.2914326708127,-33.6026930850397,-15.1502078721208,0
10.2329065799713,14.1899995803833,7.20859432220459,-32,-41.6055450439453,-1.39999997615814,-1.98043358325958,16.327962237799,15.5256966297919,11.2496223750721,3.8224010954661,-10.2177400015413,1.90134954846836e-15,-10.2177400015413,-33.5760116577148,-15.1499996185303,0
10.2692043781281,13.5199995040894,7.20859432220459,-32,-41.6055450439453,-1.52999997138977,-1.98043358325958,16.2880838281013,15.1810676997416,11.272816234581,5.02926471263502,-10.1488428035802,1.85914454686968e-15,-10.1488428035802,-28.7457734028613,-15.0950398688641,0
10.3147118091583,13.5199995040894,7.20859432220459,-32,-41.6055450439453,-1.51999998092651,-1.98043358325958,16.2830276489258,15.1367225646973,11.2926419319722,5.18455791473389,-10.0827457792229,1.85371381737414e-15,-10.0827457792229,-28.3027648925781,-15.0899991989136,0
10.400866985321,20.1099987030029,7.20859432220459,-26,-41.6055450439453,-1.66999995708466,-1.98043358325958,16.1696945728562,15.1367225646973,11.3428137494899,5.18455791473389,-9.95099872067361,1.85371381737414e-15,-9.95099872067361,-15.8117702811648,-15.0300484471069,0
10.428626537323,20.1099987030029,11.4126625061035,-26,-38.2407112121582,-1.66999995708466,-0.951946079730988,16.158016204834,15.1367225646973,11.3598439785745,5.18455791473389,-9.91081297912663,1.85371381737414e-15,-9.91081297912663,-15.8016204833984,-15.0299997329712,0
10.4944472312927,21.5399990081787,11.4126625061035,-24,-38.2407112121582,-1.75,-0.951946079730988,16.1141373823084,14.9543113345714,11.4328877957295,5.68788112932239,-9.75854668105309,1.83137500788543e-15,-9.75854668105309,-11.1673585444079,-14.960161350365,0
10.5357129573822,21.5399990081787,11.4126625061035,-24,-38.2407112121582,-1.75,-0.951946079730988,16.1115665435791,14.9437532424927,11.4530712253207,5.71701383590698,-9.71624982425786,1.83008202166222e-15,-9.71624982425786,-11.1566543579102,-14.960000038147,0
10.587459564209,20.5,11.4126625061035,-24,-38.2407112121582,-1.77999997138977,-0.951946079730988,16.1077390527188,14.9437532424927,11.5171635651384,5.71701383590698,-9.58882977365539,1.83008202166222e-15,-9.58882977365539,-10.4288923544875,-14.9101491966557,0
10.6359145641327,20.5,11.4126625061035,-24,-38.2407112121582,-1.76999998092651,-0.951946079730988,16.1035935597104,14.9437532424927,11.5824492041814,5.71701383590698,-9.4595660687574,1.83008202166222e-15,-9.4595660687574,-10.4267120361328,-14.9099998474121,0
10.6948847770691,19.2600002288818,11.4126625061035,-24,-38.2407112121582,-1.82999992370605,-0.951946079730988,16.0976180282239,14.9437532424927,11.6649612272838,5.71701383590698,-9.29799583547754,1.83008202166222e-15,-9.29799583547754,-9.71980879991172,-14.8601716277673,0
10.732239484787,19.2600002288818,11.4126625061035,-24,-38.2407112121582,-1.8199999332428,-0.951946079730988,16.0971736907959,14.9437532424927,11.6929015978896,5.71701383590698,-9.23003953958359,1.83008202166222e-15,-9.23003953958359,-9.71736907958984,-14.8599996566772,0
10.7719922065735,24.7600002288818,11.4126625061035,-17,-38.2407112121582,-1.35000002384186,-0.951946079730988,16.0141555086747,14.5393683837137,11.7407622840322,6.62623451389213,-9.11071742739365,1.78055916677031e-15,-9.11071742739365,4.47876599022572,-14.830157444152,0
10.8270533084869,24.7600002288818,11.4126625061035,-17,-38.2407112121582,-1.33999991416931,-0.951946079730988,15.9544630050659,14.253589630127,11.7903000044088,7.26878070831299,-8.98195321519004,1.74556136841604e-15,-8.98195321519004,4.5536994934082,-14.8299999237061,0
10.8738770484924,23.6599998474121,17.1157150268555,-17,-35.6404762268066,-2.26999998092651,0.177192181348801,15.8318169942197,14.253589630127,11.8482786107695,7.26878070831299,-8.84229151378389,1.74556136841604e-15,-8.84229151378389,16.4069428975762,-14.810028186111,0
10.8895823955536,23.6599998474121,17.1157150268555,-17,-35.6404762268066,-2.26999998092651,0.177192181348801,15.8257598876953,14.253589630127,11.866288636901,7.26878070831299,-8.79261079184749,1.74556136841604e-15,-8.79261079184749,16.4239883422852,-14.8099994659424,0
10.9826953411102,26.7399997711182,17.1157150268555,-13,-35.6404762268066,-3.14999985694885,0.177192181348801,15.7655026787398,13.7306941035076,11.9294927037573,8.21024893799993,-8.59986657172221,1.68152501937931e-15,-8.59986657172221,22.4845955762581,-14.7812955526406,0
10.9959802627563,26.7399997711182,17.1157150268555,-13,-35.6404762268066,-3.14999985694885,0.177192181348801,15.7624177932739,13.7037076950073,11.9427757231196,8.25883769989014,-8.56258043034201,1.67822013152696e-15,-8.56258043034201,22.7581977844238,-14.7799997329712,0
11.1265695095062,25.6999988555908,17.1157150268555,-13,-35.6404762268066,-2.62999987602234,0.177192181348801,15.6216848084385,13.7037076950073,12.0308280324701,8.25883769989014,-8.29966470045004,1.67822013152696e-15,-8.29966470045004,37.8237044782088,-14.7507783294735,0
11.1656684875488,24.7799987792969,17.1157150268555,-13,-35.6404762268066,-2.80999994277954,0.177192181348801,15.4292106254938,13.7037076950073,12.0589837436616,8.25883769989014,-8.21899805761359,1.67822013152696e-15,-8.21899805761359,57.6861193767376,-14.7006813975007,0
11.2218744754791,24.7799987792969,17.1157150268555,-13,-35.6404762268066,-2.79999995231628,0.177192181348801,15.420449256897,13.7037076950073,12.1034622189758,8.25883769989014,-8.10371241339796,1.67822013152696e-15,-8.10371241339796,57.9550743103027,-14.6999998092651,0
11.2504186630249,24.7799987792969,20.0679035186768,45,-32.090648651123,-2.79999995231628,-0.729625880718231,15.2909461546518,2.79609442717008,12.1286563967434,14.4205002935042,-8.04557327711707,3.42422799855593e-16,-8.04557327711707,71.957188396302,-14.6481350774849,0
11.3081064224243,44.879997253418,20.0679035186768,45,-32.090648651123,-2.85999989509583,-0.729625880718231,15.2584638595581,3.00000010611257e-06,12.1923535984275,16,-7.90141200816706,3.67394031065145e-22,-7.90141200816706,74.1536102294922,-14.6399993896484,0
11.3595941066742,44.8699989318848,20.0679035186768,45,-32.090648651123,-2.96000003814697,-0.729625880718231,15.1317417486285,3.00000010611257e-06,12.2446057400407,16,-7.77797325149975,3.67394031065145e-22,-7.77797325149975,89.2949639206606,-14.5637545463382,0
11.3988480567932,44.8699989318848,20.0679035186768,45,-32.090648651123,-2.93999981880188,-0.729625880718231,15.0995931625366,3.00000010611257e-06,12.2985355259706,16,-7.64491492932819,3.67394031065145e-22,-7.64491492932819,90.0406799316406,-14.5599994659424,0
11.4496510028839,44.8600006103516,20.0679035186768,45,-32.090648651123,-2.89999985694885,-0.729625880718231,15.0038851191281,3.00000010611257e-06,12.3875000095358,16,-7.472057678865,3.67394031065145e-22,-7.472057678865,100.41144407866,-14.4605256993705,0
11.4938359260559,44.8499984741211,20.0679035186768,45,-32.090648651123,-2.86999988555908,-0.729625880718231,14.9953374862671,3.00000010611257e-06,12.4600560841961,16,-7.32267290160135,3.67394031065145e-22,-7.32267290160135,100.466247558594,-14.460000038147,0
11.5194330215454,44.8499984741211,20.0679035186768,45,-32.090648651123,-2.84999990463257,-0.729625880718231,14.9953374862671,3.00000010611257e-06,12.4971884039209,16,-7.25780481129773,3.67394031065145e-22,-7.25780481129773,100.466247558594,-14.460000038147,0
11.6171491146088,44.8400001525879,28.2128791809082,45,-26.5451354980469,-2.75,-2.53894186019897,14.8761145322222,3.00000010611257e-06,12.6923203987741,16,-6.8746007031812,3.67394031065145e-22,-6.8746007031812,113.257935246765,-14.3401658210682,0
11.7044339179993,44.8400001525879,28.2128791809082,45,-26.5451354980469,-2.53999996185303,-2.53894186019897,14.872876270997,3.00000010611257e-06,12.8970479469279,16,-6.47938204393867,3.67394031065145e-22,-6.47938204393867,112.699937825069,-14.2032054926294,0
11.721116065979,44.8400001525879,28.2128791809082,45,-26.5451354980469,-2.52999997138977,-2.53894186019897,14.8731355667114,3.00000010611257e-06,12.9576556818735,16,-6.36010339123779,3.67394031065145e-22,-6.36010339123779,112.686447143555,-14.1999998092651,0
11.7835128307343,44.8400001525879,28.2128791809082,45,-26.5451354980469,-2.22000002861023,-2.53894186019897,14.9446486531102,3.00000010611257e-06,13.1162238533604,16,-6.04493893794818,3.67394031065145e-22,-6.04493893794818,105.514230916349,-14.0514137360532,0
11.8234181404114,44.8400001525879,28.2128791809082,45,-26.5451354980469,-2.19000005722046,-2.53894186019897,14.9455404281616,3.00000010611257e-06,13.2221795405552,16,-5.83415132971982,3.67394031065145e-22,-5.83415132971982,105.445953369141,-14.0499992370605,0
11.8701858520508,44.8499984741211,28.2128791809082,45,-26.5451354980469,-1.87000000476837,-2.53894186019897,14.9881332899867,3.00000010611257e-06,13.3892899951164,16,-5.50894289981029,3.67394031065145e-22,-5.50894289981029,100.737874771493,-13.8918960019756,0
11.9247934818268,44.8499984741211,28.2128791809082,45,-26.5451354980469,-1.84999990463257,-2.53894186019897,14.9931859970093,3.00000010611257e-06,13.5110781569511,16,-5.25934031707289,3.67394031065145e-22,-5.25934031707289,100.681396484375,-13.8899993896484,0
