datetime,roll_c,roll_m,yaw_c,yaw_m,pitch_c,pitch_m,aspd_m,vx_c,vx_m,vy_c,vy_m,vz_c,vz_m,aspd_error,alt_error,fault
0.0162560939788818,33,-3.14478302001953,110,-63.053955078125,-3.11999988555908,-2.90093278884888,NaN,NaN,NaN,NaN,NaN,NaN,NaN,NaN,NaN,0
0.0736234188079834,33,-2.90670084953308,110,-64.6685638427734,-3.11999988555908,-1.70798170566559,0,0.0560423359274864,7.3441285419327,15.9999017715454,-18.8896479158053,6.86320687785863e-18,-18.8896479158053,-460.954467773438,-0.0700000002980232,0
0.111183166503906,33,-2.90670084953308,110,-64.6685638427734,-3.11999988555908,-1.70798170566559,0,0.0560423359274864,7.31460760383758,15.9999017715454,-18.9029924884233,6.86320687785863e-18,-18.9029924884233,-460.954467773438,-0.0700000002980232,0
0.147844076156616,35.1800003051758,-2.90670084953308,109,-64.6685638427734,-3.49000000953674,-1.70798170566559,0,13.8849271987544,7.29269557708946,2.12249416190141,-18.9135818854548,1.70041323921263e-15,-18.9135818854548,-461.504603510274,-0.149897377551692,0
0.167769908905029,35.1800003051758,-2.90670084953308,109,-64.6685638427734,-3.49000000953674,-1.70798170566559,0,16,7.29974508786938,-3.5527136788005e-15,-18.9050658445366,1.95943496413627e-15,-18.9050658445366,-461.505310058594,-0.149999991059303,0
0.235758543014526,36.3899993896484,-2.90670084953308,-44,-64.6685638427734,-5.78999996185303,-1.70798170566559,0,16,7.30890648099405,-3.5527136788005e-15,-18.872578987761,1.95943496413627e-15,-18.872578987761,-461.505310058594,-0.249781121052051,0
0.29515814781189,36.3899993896484,-2.90670084953308,-44,-64.6685638427734,-5.77999973297119,-1.70798170566559,0,16,7.33904102567411,-3.5527136788005e-15,-18.8155624274985,1.95943496413627e-15,-18.8155624274985,-461.505310058594,-0.25,0
0.325502634048462,36.1199989318848,-2.90670084953308,-44,-64.6685638427734,-8.02999973297119,-1.70798170566559,0,16,7.37211372616981,-3.5527136788005e-15,-18.7684093418867,1.95943496413627e-15,-18.7684093418867,-364.638043902247,-0.359848252014789,0
0.390993595123291,36.1100006103516,-2.90670084953308,-44,-64.6685638427734,-8.01000022888184,-1.70798170566559,0,16,7.42973556231361,-3.5527136788005e-15,-18.7047781879439,1.95943496413627e-15,-18.7047781879439,-364.504241943359,-0.359999984502792,0
0.432223558425903,35.6300010681152,-2.90670084953308,-44,-64.6685638427734,-10.1700000762939,-1.70798170566559,0,16,7.46437971211242,-3.5527136788005e-15,-18.6449075509218,1.95943496413627e-15,-18.6449075509218,-364.504241943359,-0.469696549615118,0
0.495116472244263,35.6300010681152,15.9484539031982,-44,-65.7979049682617,-10.1499996185303,-2.36769700050354,0,16,7.54399240856564,-3.5527136788005e-15,-18.5546893476451,1.95943496413627e-15,-18.5546893476451,-360.264026794379,-0.579644377668988,0
0.51916766166687,34.9799995422363,15.9484539031982,-44,-65.7979049682617,-12.1899995803833,-2.36769700050354,0,16,7.58710599176877,-3.5527136788005e-15,-18.5126573164986,1.95943496413627e-15,-18.5126573164986,-360.250274658203,-0.579999983310699,0
0.591808319091797,34.9799995422363,15.9484539031982,-44,-65.7979049682617,-12.1599998474121,-2.36769700050354,0,16,7.72728802833836,-3.5527136788005e-15,-18.390086106096,1.95943496413627e-15,-18.390086106096,-360.250274658203,-0.580345966373828,0
0.626575469970703,34.0900001525879,15.9484539031982,-44,-65.7979049682617,-14.2199993133545,-2.36769700050354,0,16,7.79792898163609,-3.5527136788005e-15,-18.3095445848668,1.95943496413627e-15,-18.3095445848668,-360.250274658203,-0.679858065383069,0
0.719263553619385,33.1599998474121,15.9484539031982,-44,-65.7979049682617,-16.1399993896484,-2.36769700050354,0,16,7.93357120560944,-3.5527136788005e-15,-18.1550397083208,1.95943496413627e-15,-18.1550397083208,-348.175912925342,-0.759016940854921,0
0.757482528686523,33.1599998474121,15.9484539031982,-44,-65.7979049682617,-16.1199989318848,-2.36769700050354,0,16,8.01399726153434,-3.5527136788005e-15,-18.0796884788755,1.95943496413627e-15,-18.0796884788755,-348.025695800781,-0.759999990463257,0
0.838139057159424,32.1499977111816,15.9484539031982,-44,-65.7979049682617,-18.0100002288818,-2.36769700050354,0,16,8.16030237048764,-3.5527136788005e-15,-17.9225502063091,1.95943496413627e-15,-17.9225502063091,-348.025695800781,-0.82973330759363,0
0.889115333557129,32.1300010681152,15.9484539031982,-44,-65.7979049682617,-18,-2.36769700050354,0,16,8.24651994533057,-3.5527136788005e-15,-17.8011948450115,1.95943496413627e-15,-17.8011948450115,-348.025695800781,-0.829999983310699,0
0.921449422836304,31.1999988555908,15.9484539031982,-44,-65.7979049682617,-19.7399997711182,-2.36769700050354,0,16,8.28228505497366,-3.5527136788005e-15,-17.7399959752758,1.95943496413627e-15,-17.7399959752758,-334.296504538894,-0.878806317975052,0
0.994306564331055,31.1499996185303,26.1303272247314,-44,-65.2007522583008,-19.7299995422363,-4.97563123703003,0,16,8.32981953989568,-3.5527136788005e-15,-17.644832406074,1.95943496413627e-15,-17.644832406074,-333.960723876953,-0.879999995231628,0
1.02798557281494,30.4299983978271,26.1303272247314,-44,-65.2007522583008,-21.2799987792969,-4.97563123703003,0,16,8.35116374689846,-3.5527136788005e-15,-17.5754257230448,1.95943496413627e-15,-17.5754257230448,-333.960723876953,-0.909899579103356,0
1.09689617156982,30.3400001525879,26.1303272247314,-44,-65.2007522583008,-21.2799987792969,-4.97563123703003,0,16,8.40512077568631,-3.5527136788005e-15,-17.4720354598238,1.95943496413627e-15,-17.4720354598238,-333.960723876953,-0.909999966621399,0
1.1244683265686,29.5999984741211,26.1303272247314,-44,-65.2007522583008,-22.4099998474121,-4.97563123703003,0,16,8.43514128713263,-3.5527136788005e-15,-17.4090869325552,1.95943496413627e-15,-17.4090869325552,-318.125153197709,-0.880051593699287,0
1.19409990310669,29.4899997711182,26.1303272247314,-44,-65.2007522583008,-22.3699989318848,-4.97563123703003,0,16,8.52467858343517,-3.5527136788005e-15,-17.2770058005782,1.95943496413627e-15,-17.2770058005782,-318.097869873047,-0.879999995231628,0
1.23396944999695,28.6599998474121,26.1303272247314,-44,-65.2007522583008,-22.3099994659424,-4.97563123703003,0,16,8.55682329450791,-3.5527136788005e-15,-17.2234150036426,1.95943496413627e-15,-17.2234150036426,-318.097869873047,-0.810153772090982,0
1.32515740394592,27.6999988555908,26.1303272247314,-44,-65.2007522583008,-22.1199989318848,-4.97563123703003,0,16,8.64046745352376,-3.5527136788005e-15,-17.0722150472237,1.95943496413627e-15,-17.0722150472237,-296.515841353862,-0.682205704039479,0
1.34837770462036,27.6199989318848,26.1303272247314,-44,-65.2007522583008,-22.0100002288818,-4.97563123703003,0,16,8.66703704281158,-3.5527136788005e-15,-17.0082791284372,1.95943496413627e-15,-17.0082791284372,-296.143341064453,-0.680000007152557,0
1.4116485118866,27.5399990081787,28.4016342163086,-44,-60.2638778686523,-21.9099998474121,-13.2932100296021,0,16,8.69965580076755,-3.5527136788005e-15,-16.9242361241901,1.95943496413627e-15,-16.9242361241901,-296.143341064453,-0.50741860881315,0
1.43245577812195,26.7199993133545,28.4016342163086,-44,-60.2638778686523,-21.8199996948242,-13.2932100296021,0,16,8.71076371465565,-3.5527136788005e-15,-16.8621175190345,1.95943496413627e-15,-16.8621175190345,-296.143341064453,-0.5,0
1.50685739517212,25.9899997711182,28.4016342163086,-44,-60.2638778686523,-21.7299995422363,-13.2932100296021,0,16,8.75239833336191,-3.5527136788005e-15,-16.7160383621876,1.95943496413627e-15,-16.7160383621876,-271.88580916281,-0.240710854205122,0
1.55356907844543,25.9599990844727,28.4016342163086,-44,-60.2638778686523,-21.7199993133545,-13.2932100296021,0,16,8.78834682229076,-3.5527136788005e-15,-16.6418920133735,1.95943496413627e-15,-16.6418920133735,-271.819305419922,-0.239999994635582,0
1.59749388694763,25.939998626709,28.4016342163086,-44,-60.2638778686523,-21.6999988555908,-13.2932100296021,0,16,8.84463042485583,-3.5527136788005e-15,-16.5691206270254,1.95943496413627e-15,-16.5691206270254,-271.819305419922,-0.239999994635582,0
1.6392126083374,25.1000003814697,28.4016342163086,-44,-60.2638778686523,-21.6800003051758,-13.2932100296021,0,16,8.94476431548583,-3.5527136788005e-15,-16.447186608617,1.95943496413627e-15,-16.447186608617,-271.819305419922,0.068200931659091,0
1.68757176399231,25.0900001525879,28.4016342163086,-44,-60.2638778686523,-21.6499996185303,-13.2932100296021,0,16,9.0386282192204,-3.5527136788005e-15,-16.3590369572119,1.95943496413627e-15,-16.3590369572119,-271.819305419922,0.0700000002980232,0
1.73533630371094,23.9099998474121,29.8320198059082,-44,-57.4981575012207,-21.6399993896484,-16.1962985992432,0,16,9.17886562069239,-3.5527136788005e-15,-16.2481773814618,1.95943496413627e-15,-16.2481773814618,-210.780067099164,0.449612574050268,0
1.87241125106812,22.4499988555908,29.8320198059082,-44,-57.4981575012207,-21.6999988555908,-16.1962985992432,0,16,9.52362907130727,-3.5527136788005e-15,-15.9925171163043,1.95943496413627e-15,-15.9925171163043,-210.7177734375,0.849826045154742,0
1.92940711975098,21.0100002288818,29.8320198059082,-44,-57.4981575012207,-21.7199993133545,-16.1962985992432,0,16,9.70069307550187,-3.5527136788005e-15,-15.8675444989377,1.95943496413627e-15,-15.8675444989377,-187.47756386718,1.28975320741186,0
2.0164098739624,19.4599990844727,29.8320198059082,-44,-57.4981575012207,-21.6000003814697,-16.1962985992432,0,16,9.90647749448717,-3.5527136788005e-15,-15.7080624506403,1.95943496413627e-15,-15.7080624506403,-187.46452331543,1.72395432618052,0
2.04754686355591,19.4300003051758,29.8320198059082,-44,-57.4981575012207,-21.5399990081787,-16.1962985992432,0,16,9.97646642179242,-3.5527136788005e-15,-15.6426911617294,1.95943496413627e-15,-15.6426911617294,-187.46452331543,1.74000000953674,0
2.1052463054657,18.1900005340576,29.8320198059082,-44,-57.4981575012207,-21.5100002288818,-16.1962985992432,0,16,10.1033448409177,-3.5527136788005e-15,-15.5307445447273,1.95943496413627e-15,-15.5307445447273,-183.676217788821,2.21823439741199,0
2.13038086891174,18.1900005340576,29.8320198059082,-44,-57.4981575012207,-21.5200004577637,-16.1962985992432,0,16,10.160604745142,-3.5527136788005e-15,-15.4837429936108,1.95943496413627e-15,-15.4837429936108,-183.662231445313,2.22000002861023,0
2.19776773452759,18.1700000762939,29.8320198059082,-44,-57.4981575012207,-21.7199993133545,-16.1962985992432,0,16,10.3102478637999,-3.5527136788005e-15,-15.3765030075431,1.95943496413627e-15,-15.3765030075431,-183.662231445313,2.22000002861023,0
2.22565937042236,16.7600002288818,29.8320198059082,-44,-57.4981575012207,-21.8999996185303,-16.1962985992432,0,16,10.3965391906751,-3.5527136788005e-15,-15.322628377947,1.95943496413627e-15,-15.322628377947,-183.662231445313,2.69272501400079,0
2.2843291759491,16.7399997711182,28.1820049285889,-44,-53.6583099365234,-22.1499996185303,-18.8107414245605,0,16,10.6158135521646,-3.5527136788005e-15,-15.2029111665838,1.95943496413627e-15,-15.2029111665838,-183.662231445313,2.72000002861023,0
2.39309883117676,15.1700000762939,28.1820049285889,-44,-53.6583099365234,-22.5399990081787,-18.8107414245605,0,16,10.9218859380478,-3.5527136788005e-15,-15.0440109108322,1.95943496413627e-15,-15.0440109108322,-178.040014692673,3.24078673475101,0
2.44759082794189,13.6899995803833,28.1820049285889,-44,-53.6583099365234,-22.8599987030029,-18.8107414245605,0,16,11.1018293207054,-3.5527136788005e-15,-14.9496537472017,1.95943496413627e-15,-14.9496537472017,-177.940551757813,3.77707650952341,0
2.53142094612122,12.1199998855591,28.1820049285889,-44,-53.6583099365234,-23.2600002288818,-18.8107414245605,0,16,11.3670196634187,-3.5527136788005e-15,-14.832561562326,1.95943496413627e-15,-14.832561562326,-181.241773840428,4.30518918687524,0
2.60616207122803,10.539999961853,28.1820049285889,-44,-53.6583099365234,-23.5799999237061,-18.8107414245605,0,16,11.6314019834656,-3.5527136788005e-15,-14.7359654739406,1.95943496413627e-15,-14.7359654739406,-181.334869384766,4.84537269893508,0
2.6546516418457,10.5299997329712,28.1820049285889,-44,-53.6583099365234,-23.7099990844727,-18.8107414245605,0,16,11.7879090769982,-3.5527136788005e-15,-14.6774943105698,1.95943496413627e-15,-14.6774943105698,-181.334869384766,4.84999990463257,0
2.68917489051819,10.5199995040894,18.3438739776611,-44,-47.329833984375,-23.8099994659424,-19.9987983703613,0,16,11.9045148616871,-3.5527136788005e-15,-14.6403113278721,1.95943496413627e-15,-14.6403113278721,-181.334869384766,4.84999990463257,0
2.74945306777954,9.05000019073486,18.3438739776611,-44,-47.329833984375,-23.9200000762939,-19.9987983703613,0,16,12.0756132954371,-3.5527136788005e-15,-14.5667576341508,1.95943496413627e-15,-14.5667576341508,-192.395199815946,5.35481108309758,0
2.79696774482727,9.01999950408936,18.3438739776611,-44,-47.329833984375,-23.9799995422363,-19.9987983703613,0,16,12.1525752190858,-3.5527136788005e-15,-14.5245758375128,1.95943496413627e-15,-14.5245758375128,-192.508880615234,5.35999965667725,0
2.88304734230042,7.75999975204468,18.3438739776611,-44,-47.329833984375,-24.0900001525879,-19.9987983703613,0,16,12.3090194054015,-3.5527136788005e-15,-14.4115945625058,1.95943496413627e-15,-14.4115945625058,-192.508880615234,5.87886437015264,0
2.94768333435059,6.84999990463257,18.3438739776611,-44,-47.329833984375,-24.1399993896484,-19.9987983703613,0,16,12.3903207532033,-3.5527136788005e-15,-14.3476630842107,1.95943496413627e-15,-14.3476630842107,-231.629502931675,6.38912037715974,0
3.00941514968872,6.84999990463257,18.3438739776611,-44,-47.329833984375,-24.1499996185303,-19.9987983703613,0,16,12.4417079088471,-3.5527136788005e-15,-14.3155691540706,1.95943496413627e-15,-14.3155691540706,-231.697082519531,6.92840412439959,0
3.04312586784363,6.08999967575073,14.8183345794678,-44,-44.1604423522949,-24.1700000762939,-22.4388408660889,0,16,12.4969853806267,-3.5527136788005e-15,-14.2728544604578,1.95943496413627e-15,-14.2728544604578,-231.697082519531,6.92999982833862,0
3.10015153884888,6.08999967575073,14.8183345794678,-44,-44.1604423522949,-24.1999988555908,-22.4388408660889,0,16,12.585538892502,-3.5527136788005e-15,-14.2158486514336,1.95943496413627e-15,-14.2158486514336,-235.933877453148,7.43840884068225,0
3.17090368270874,5.25,14.8183345794678,-44,-44.1604423522949,-24.25,-22.4388408660889,0,16,12.774620394852,-3.5527136788005e-15,-14.1636662845229,1.95943496413627e-15,-14.1636662845229,-236.447143554688,7.5,0
3.21026802062988,4.25,14.8183345794678,-44,-44.1604423522949,-24.2899990081787,-22.4388408660889,0,16,12.8672297741608,-3.5527136788005e-15,-14.1382931552901,1.95943496413627e-15,-14.1382931552901,-236.447143554688,8.07799520627355,0
3.2394642829895,4.25,14.8183345794678,-44,-44.1604423522949,-24.3199996948242,-22.4388408660889,0,16,12.9115189055286,-3.5527136788005e-15,-14.1267228591005,1.95943496413627e-15,-14.1267228591005,-236.447143554688,8.07999992370605,0
3.31155133247375,3.48000001907349,14.8183345794678,-44,-44.1604423522949,-24.4499988555908,-22.4388408660889,0,16,13.0322441395916,-3.5527136788005e-15,-14.1118368585256,1.95943496413627e-15,-14.1118368585256,-231.709929870625,8.66901926163151,0
3.34600496292114,3.48000001907349,14.8183345794678,-44,-44.1604423522949,-24.519998550415,-22.4388408660889,0,16,13.1358475421931,-3.5527136788005e-15,-14.0984187229617,1.95943496413627e-15,-14.0984187229617,-231.702041625977,8.67000007629395,0
3.42298865318298,2.78999996185303,14.8183345794678,-44,-44.1604423522949,-24.5900001525879,-22.4388408660889,0,16,13.2273809319525,-3.5527136788005e-15,-14.0944168688669,1.95943496413627e-15,-14.0944168688669,-231.702041625977,9.23985240964238,0
3.43630695343018,2.78999996185303,14.8183345794678,-44,-44.1604423522949,-24.6199989318848,-22.4388408660889,0,16,13.2443181659104,-3.5527136788005e-15,-14.0963879681508,1.95943496413627e-15,-14.0963879681508,-231.702041625977,9.25,0
3.48591160774231,2.78999996185303,8.99642372131348,-44,-43.1626892089844,-24.7099990844727,-22.1183681488037,0,16,13.3131851355803,-3.5527136788005e-15,-14.0916447638441,1.95943496413627e-15,-14.0916447638441,-231.702041625977,9.25,0
3.52998828887939,2.40999984741211,8.99642372131348,-44,-43.1626892089844,-24.7600002288818,-22.1183681488037,0,16,13.3655973584638,-3.5527136788005e-15,-14.0925362679824,1.95943496413627e-15,-14.0925362679824,-258.908914274061,9.82925811068829,0
3.60445094108582,2.40999984741211,8.99642372131348,-44,-43.1626892089844,-24.8199996948242,-22.1183681488037,0,16,13.4404363865589,-3.5527136788005e-15,-14.1241965242855,1.95943496413627e-15,-14.1241965242855,-258.943756103516,9.82999992370605,0
3.64245653152466,2.10999989509583,8.99642372131348,-44,-43.1626892089844,-24.8500003814697,-22.1183681488037,0,16,13.4844099989739,-3.5527136788005e-15,-14.1389415106195,1.95943496413627e-15,-14.1389415106195,-258.943756103516,10.4076944213677,0
3.69894409179688,2.09999990463257,8.99642372131348,-44,-43.1626892089844,-24.8899993896484,-22.1183681488037,0,16,13.5530042856768,-3.5527136788005e-15,-14.1612215333789,1.95943496413627e-15,-14.1612215333789,-258.943756103516,10.4200000762939,0
3.79512929916382,1.82999992370605,8.99642372131348,-44,-43.1626892089844,-24.9499988555908,-22.1183681488037,0,16,13.6462303871605,-3.5527136788005e-15,-14.2345762183533,1.95943496413627e-15,-14.2345762183533,-280.347454582333,10.9872616160217,0
3.85203051567078,1.75999999046326,8.99642372131348,-44,-43.1626892089844,-24.9699993133545,-22.1183681488037,0,16,13.6734743190422,-3.5527136788005e-15,-14.2661147800309,1.95943496413627e-15,-14.2661147800309,-280.828094482422,11.578702052091,0
3.91011595726013,1.87000000476837,8.99642372131348,-44,-43.1626892089844,-24.9799995422363,-22.1183681488037,0,16,13.6688759400959,-3.5527136788005e-15,-14.2990642632137,1.95943496413627e-15,-14.2990642632137,-294.333414277672,12.1689172627441,0
3.93980669975281,1.86000001430511,8.99642372131348,-44,-43.1626892089844,-24.9799995422363,-22.1183681488037,0,16,13.6680246798279,-3.5527136788005e-15,-14.3137995093443,1.95943496413627e-15,-14.3137995093443,-294.358245849609,12.1700000762939,0
4.00762128829956,1.86000001430511,1.51795339584351,-44,-41.5942306518555,-24.9899997711182,-24.8592262268066,0,16,13.6898236511653,-3.5527136788005e-15,-14.3457615517944,1.95943496413627e-15,-14.3457615517944,-294.358245849609,12.7708912508848,0
4.04199409484863,1.9799998998642,1.51795339584351,-44,-41.5942306518555,-24.9899997711182,-24.8592262268066,0,16,13.6934617020677,-3.5527136788005e-15,-14.3639400968748,1.95943496413627e-15,-14.3639400968748,-294.358245849609,12.7799997329712,0
4.065185546875,1.9799998998642,1.51795339584351,-44,-41.5942306518555,-24.9899997711182,-24.8592262268066,0,16,13.6930922994074,-3.5527136788005e-15,-14.3866693408734,1.95943496413627e-15,-14.3866693408734,-294.358245849609,12.7799997329712,0
4.1069393157959,2.15999984741211,1.51795339584351,-44,-41.5942306518555,-24.9899997711182,-24.8592262268066,0,16,13.6903204719116,-3.5527136788005e-15,-14.4184362933841,1.95943496413627e-15,-14.4184362933841,-311.296118104232,13.3747270482355,0
4.15702986717224,2.15999984741211,1.51795339584351,-44,-41.5942306518555,-24.9899997711182,-24.8592262268066,0,16,13.7063536985307,-3.5527136788005e-15,-14.451284644469,1.95943496413627e-15,-14.451284644469,-312.300689697266,13.4099998474121,0
4.20439410209656,2.26999998092651,1.51795339584351,-44,-41.5942306518555,-24.9899997711182,-24.8592262268066,0,16,13.7250084890125,-3.5527136788005e-15,-14.4754599686164,1.95943496413627e-15,-14.4754599686164,-312.300689697266,14.058959497948,0
4.27355027198792,2.25999999046326,1.51795339584351,-44,-41.5942306518555,-24.9899997711182,-24.8592262268066,0,16,13.7396869279062,-3.5527136788005e-15,-14.5085326619758,1.95943496413627e-15,-14.5085326619758,-312.300689697266,14.0599994659424,0
4.33284163475037,2.3899998664856,1.51795339584351,-44,-41.5942306518555,-24.9899997711182,-24.8592262268066,0,16,13.7773762158234,-3.5527136788005e-15,-14.5659662756305,1.95943496413627e-15,-14.5659662756305,-322.979915190852,14.7148306553541,0
4.40350008010864,2.39999985694885,1.51795339584351,-44,-41.5942306518555,-24.9899997711182,-24.8592262268066,0,16,13.8499355516312,-3.5527136788005e-15,-14.6274387132584,1.95943496413627e-15,-14.6274387132584,-323.227294921875,15.4189453630203,0
4.41805577278137,2.37999987602234,1.38286936283112,-44,-40.6661109924316,-24.9899997711182,-25.1252708435059,0,16,13.8880192446562,-3.5527136788005e-15,-14.6583052869223,1.95943496413627e-15,-14.6583052869223,-323.227294921875,15.4200000762939,0
4.4828143119812,2.3899998664856,1.38286936283112,-44,-40.6661109924316,-24.9799995422363,-25.1252708435059,0,16,13.941675311322,-3.5527136788005e-15,-14.7216879070592,1.95943496413627e-15,-14.7216879070592,-323.227294921875,15.4200000762939,0
4.52329730987549,2.40999984741211,1.38286936283112,-44,-40.6661109924316,-24.9799995422363,-25.1252708435059,0,16,13.9652100798386,-3.5527136788005e-15,-14.7473931725333,1.95943496413627e-15,-14.7473931725333,-335.22404631353,16.1075005182574,0
4.56528854370117,2.40999984741211,1.38286936283112,-44,-40.6661109924316,-24.9799995422363,-25.1252708435059,0,16,14.0551265022683,-3.5527136788005e-15,-14.8034398828695,1.95943496413627e-15,-14.8034398828695,-335.267639160156,16.1099987030029,0
4.60554265975952,2.24000000953674,1.38286936283112,-44,-40.6661109924316,-24.9599990844727,-25.1252708435059,0,16,14.118251160019,-3.5527136788005e-15,-14.8322746500067,1.95943496413627e-15,-14.8322746500067,-335.267639160156,16.7894752957484,0
4.69000959396362,2.24000000953674,1.38286936283112,-44,-40.6661109924316,-24.9099998474121,-25.1252708435059,0,16,14.207891118628,-3.5527136788005e-15,-14.8945798360661,1.95943496413627e-15,-14.8945798360661,-335.267639160156,16.7899990081787,0
4.71857786178589,2.10999989509583,1.38286936283112,-44,-40.6661109924316,-24.1800003051758,-25.1252708435059,0,16,14.2391440633445,-3.5527136788005e-15,-14.9202906814305,1.95943496413627e-15,-14.9202906814305,-368.070676769701,17.4572997698166,0
4.80145907402039,2.09999990463257,1.38286936283112,-44,-40.6661109924316,-24.1700000762939,-25.1252708435059,0,16,14.3303636298566,-3.5527136788005e-15,-14.9823345984688,1.95943496413627e-15,-14.9823345984688,-368.203369140625,17.4599990844727,0
4.81963467597961,1.99000000953674,1.38286936283112,-44,-40.6661109924316,-21.939998626709,-25.1252708435059,0,16,14.3541817634177,-3.5527136788005e-15,-14.998070229741,1.95943496413627e-15,-14.998070229741,-368.203369140625,18.1184356963315,0
4.88872218132019,1.99000000953674,4.94209575653076,-44,-42.5056419372559,-21.939998626709,-22.7725563049316,0,16,14.4290340103237,-3.5527136788005e-15,-15.0747702884406,1.95943496413627e-15,-15.0747702884406,-368.203369140625,18.1199989318848,0
4.90843176841736,1.9799998998642,4.94209575653076,-44,-42.5056419372559,-19.7999992370605,-22.7725563049316,0,16,14.4367169716334,-3.5527136788005e-15,-15.0938778671886,1.95943496413627e-15,-15.0938778671886,-396.594152070246,18.7465445759889,0
4.99999237060547,1.96999990940094,4.94209575653076,-44,-42.5056419372559,-19.7999992370605,-22.7725563049316,0,16,14.4544880599467,-3.5527136788005e-15,-15.1386888868703,1.95943496413627e-15,-15.1386888868703,-397.657012939453,18.7700004577637,0
5.03078389167786,2.09999990463257,4.94209575653076,-44,-42.5056419372559,-17.4899997711182,-22.7725563049316,0,16,14.4563450870876,-3.5527136788005e-15,-15.150390263884,1.95943496413627e-15,-15.150390263884,-397.657012939453,19.4118719440232,0
5.11068153381348,2.1399998664856,4.94209575653076,-44,-42.5056419372559,-15.1700000762939,-22.7725563049316,0,16,14.4637978046182,-3.5527136788005e-15,-15.1695183741504,1.95943496413627e-15,-15.1695183741504,-426.390089146726,20.0651772312014,0
5.13925790786743,2.1399998664856,4.94209575653076,-44,-42.5056419372559,-15.1700000762939,-22.7725563049316,0,16,14.4600741762476,-3.5527136788005e-15,-15.1772931276678,1.95943496413627e-15,-15.1772931276678,-426.604858398438,20.0699996948242,0
5.20858550071716,2.25,3.6048321723938,-44,-42.4023017883301,-12.7399997711182,-23.2110424041748,0,16,14.4609092249258,-3.5527136788005e-15,-15.197157324921,1.95943496413627e-15,-15.197157324921,-426.604858398438,20.7248155580342,0
5.23788642883301,2.25,3.6048321723938,-44,-42.4023017883301,-12.7399997711182,-23.2110424041748,0,16,14.4665127174607,-3.5527136788005e-15,-15.2076757273235,1.95943496413627e-15,-15.2076757273235,-426.604858398438,20.75,0
5.2924599647522,2.25999999046326,3.6048321723938,-44,-42.4023017883301,-12.7399997711182,-23.2110424041748,0,16,14.5032096832309,-3.5527136788005e-15,-15.2386025475921,1.95943496413627e-15,-15.2386025475921,-426.604858398438,20.75,0
5.34420394897461,2.29999995231628,3.6048321723938,-44,-42.4023017883301,-10.3899993896484,-23.2110424041748,0,16,14.5603651797786,-3.5527136788005e-15,-15.2748319202233,1.95943496413627e-15,-15.2748319202233,-431.916589476025,21.4461464739362,0
5.41032814979553,2.14999985694885,3.6048321723938,-44,-42.4023017883301,-8.15999984741211,-23.2110424041748,0,16,14.6277793419777,-3.5527136788005e-15,-15.3266580397152,1.95943496413627e-15,-15.3266580397152,-431.945983886719,22.148615927859,0
5.44650650024414,2.14999985694885,3.6048321723938,-44,-42.4023017883301,-8.15999984741211,-23.2110424041748,0,16,14.6477928516987,-3.5527136788005e-15,-15.3548389440891,1.95943496413627e-15,-15.3548389440891,-431.945983886719,22.1499996185303,0
5.49937343597412,2.16999983787537,3.6048321723938,-44,-42.4023017883301,-8.15999984741211,-23.2110424041748,0,16,14.7349743222351,-3.5527136788005e-15,-15.4140768805241,1.95943496413627e-15,-15.4140768805241,-431.945983886719,22.1499996185303,0
5.51420903205872,2.11999988555908,3.6048321723938,-44,-42.4023017883301,-6.11999988555908,-23.2110424041748,0,16,14.7693404400225,-3.5527136788005e-15,-15.4328368814362,1.95943496413627e-15,-15.4328368814362,-435.411901130056,22.8252563270382,0
5.6024329662323,2.12999987602234,3.6048321723938,-44,-42.4023017883301,-6.11999988555908,-23.2110424041748,0,16,14.9007360055387,-3.5527136788005e-15,-15.5135550875714,1.95943496413627e-15,-15.5135550875714,-435.436248779297,22.8299999237061,0
5.63419508934021,1.89999997615814,3.6048321723938,-44,-42.4023017883301,-4.19999980926514,-23.2110424041748,0,16,14.9629722180971,-3.5527136788005e-15,-15.5552313428328,1.95943496413627e-15,-15.5552313428328,-435.436248779297,23.4830738559092,0
5.66750860214233,1.9099999666214,2.92332339286804,-44,-41.2643356323242,-4.19999980926514,-18.9952487945557,0,16,15.0260316852922,-3.5527136788005e-15,-15.5991784732278,1.95943496413627e-15,-15.5991784732278,-435.436248779297,23.4899997711182,0
5.7076563835144,1.73000001907349,2.92332339286804,-44,-41.2643356323242,-2.49000000953674,-18.9952487945557,0,16,15.0915498072472,-3.5527136788005e-15,-15.6408081805591,1.95943496413627e-15,-15.6408081805591,-469.230220431994,24.067384432777,0
5.79887008666992,1.75,2.92332339286804,-44,-41.2643356323242,-2.49000000953674,-18.9952487945557,0,16,15.2245657216861,-3.5527136788005e-15,-15.7381190916403,1.95943496413627e-15,-15.7381190916403,-469.968597412109,24.0799999237061,0
5.81224179267883,1.58999991416931,2.92332339286804,-44,-41.2643356323242,-0.930000007152557,-18.9952487945557,0,16,15.2429885117886,-3.5527136788005e-15,-15.7598748392023,1.95943496413627e-15,-15.7598748392023,-469.968597412109,24.6363715121776,0
5.89119863510132,1.58999991416931,2.92332339286804,-44,-41.2643356323242,-0.930000007152557,-18.9952487945557,0,16,15.3487525323433,-3.5527136788005e-15,-15.8555460746621,1.95943496413627e-15,-15.8555460746621,-469.968597412109,24.6599998474121,0
5.95687627792358,1.5699999332428,2.92332339286804,-44,-41.2643356323242,0.409999996423721,-18.9952487945557,0,16,15.4287584803983,-3.5527136788005e-15,-15.9268357733606,1.95943496413627e-15,-15.9268357733606,-509.00059766393,25.1487270118831,0
5.96956515312195,1.57999992370605,2.92332339286804,-44,-41.2643356323242,0.409999996423721,-18.9952487945557,0,16,15.4645509719385,-3.5527136788005e-15,-15.9486833415336,1.95943496413627e-15,-15.9486833415336,-509.102233886719,25.1499996185303,0
6.03558659553528,1.5,2.92332339286804,-44,-41.2643356323242,1.73000001907349,-18.9952487945557,0,16,15.5336055705212,-3.5527136788005e-15,-16.016900471385,1.95943496413627e-15,-16.016900471385,-509.102233886719,25.6086076005652,0
6.06555771827698,1.5,1.90662896633148,-44,-42.0464859008789,1.73000001907349,-13.8725900650024,0,16,15.5753081489745,-3.5527136788005e-15,-16.0778694813707,1.95943496413627e-15,-16.0778694813707,-509.102233886719,25.6099987030029,0
6.103839635849,1.54999995231628,1.90662896633148,-44,-42.0464859008789,2.77999997138977,-13.8725900650024,0,16,15.6343363161812,-3.5527136788005e-15,-16.1312216519639,1.95943496413627e-15,-16.1312216519639,-547.413869087673,26.0095392828105,0
6.22633457183838,1.62000000476837,1.90662896633148,-44,-42.0464859008789,3.61999988555908,-13.8725900650024,0,16,15.7683521507185,-3.5527136788005e-15,-16.3184076679003,1.95943496413627e-15,-16.3184076679003,-547.458068847656,26.3495383487863,0
6.29133749008179,1.62000000476837,1.90662896633148,-44,-42.0464859008789,3.61999988555908,-13.8725900650024,0,16,15.8037388631153,-3.5527136788005e-15,-16.3965080499025,1.95943496413627e-15,-16.3965080499025,-547.458068847656,26.3499984741211,0
6.36561155319214,1.93999993801117,1.90662896633148,-44,-42.0464859008789,4.28999996185303,-13.8725900650024,0,16,15.8642687894826,-3.5527136788005e-15,-16.5309997127939,1.95943496413627e-15,-16.5309997127939,-573.429975296243,26.6094394363189,0
6.44609832763672,2.24000000953674,1.90662896633148,-44,-42.0464859008789,4.79999971389771,-13.8725900650024,0,16,15.8764184930411,-3.5527136788005e-15,-16.6380010874144,1.95943496413627e-15,-16.6380010874144,-573.485961914063,26.8298674565326,0
6.47915983200073,2.25,1.90662896633148,-44,-42.0464859008789,4.79999971389771,-13.8725900650024,0,16,15.8798255711083,-3.5527136788005e-15,-16.6621473543565,1.95943496413627e-15,-16.6621473543565,-573.485961914063,26.8299999237061,0
6.51121163368225,2.67999982833862,1.90662896633148,-44,-42.0464859008789,5.13000011444092,-13.8725900650024,0,16,15.894103666627,-3.5527136788005e-15,-16.6944162494894,1.95943496413627e-15,-16.6944162494894,-616.284042565495,26.9548058804156,0
6.57192993164063,2.69000005722046,0.473486542701721,-44,-42.2618865966797,5.13000011444092,-6.69214344024658,0,16,15.9061380534596,-3.5527136788005e-15,-16.7477787299121,1.95943496413627e-15,-16.7477787299121,-618.064880371094,26.9599990844727,0
6.58964824676514,2.69000005722046,0.473486542701721,-44,-42.2618865966797,5.13000011444092,-6.69214344024658,0,16,15.9095994203756,-3.5527136788005e-15,-16.7620761781518,1.95943496413627e-15,-16.7620761781518,-618.064880371094,26.9599990844727,0
6.62150859832764,2.89999985694885,0.473486542701721,-44,-42.2618865966797,5.29999971389771,-6.69214344024658,0,16,15.8816619915509,-3.5527136788005e-15,-16.787095745291,1.95943496413627e-15,-16.787095745291,-618.064880371094,27.0344755292208,0
6.71500658988953,3.27999997138977,0.473486542701721,-44,-42.2618865966797,5.48000001907349,-6.69214344024658,0,16,15.8437282301848,-3.5527136788005e-15,-16.8059950348736,1.95943496413627e-15,-16.8059950348736,-625.523788125959,27.0499946357804,0
6.76746654510498,3.27999997138977,0.473486542701721,-44,-42.2618865966797,5.48000001907349,-6.69214344024658,0,16,15.8227850574819,-3.5527136788005e-15,-16.8071772234892,1.95943496413627e-15,-16.8071772234892,-625.527221679688,27.0499992370605,0
6.80368638038635,3.27999997138977,0.473486542701721,-44,-42.2618865966797,5.48000001907349,-6.69214344024658,0,16,15.8176185637561,-3.5527136788005e-15,-16.8017647177027,1.95943496413627e-15,-16.8017647177027,-625.527221679688,27.0499992370605,0
6.87834358215332,3.3899998664856,0.473486542701721,-44,-42.2618865966797,5.60999965667725,-6.69214344024658,0,16,15.7566066226069,-3.5527136788005e-15,-16.7587510020334,1.95943496413627e-15,-16.7587510020334,-625.527221679688,27.0300448137917,0
6.95544481277466,3.46000003814697,0.473486542701721,-44,-42.2618865966797,5.62999963760376,-6.69214344024658,0,16,15.7265025160275,-3.5527136788005e-15,-16.7120389199333,1.95943496413627e-15,-16.7120389199333,-632.57439635103,26.9703470586454,0
7.00795245170593,3.46000003814697,2.2295184135437,-44,-42.2293930053711,5.62999963760376,-1.14952909946442,0,16,15.7036571892571,-3.5527136788005e-15,-16.6692258760112,1.95943496413627e-15,-16.6692258760112,-632.615478515625,26.8901686649023,0
7.03395843505859,3.28999996185303,2.2295184135437,-44,-42.2293930053711,5.44999980926514,-1.14952909946442,0,16,15.6881658862267,-3.5527136788005e-15,-16.6474011767312,1.95943496413627e-15,-16.6474011767312,-632.615478515625,26.8899993896484,0
7.06440329551697,3.28999996185303,2.2295184135437,-44,-42.2293930053711,5.44999980926514,-1.14952909946442,0,16,15.6355839376586,-3.5527136788005e-15,-16.6137124036786,1.95943496413627e-15,-16.6137124036786,-632.615478515625,26.8899993896484,0
7.11036324501038,3.43999981880188,2.2295184135437,-44,-42.2293930053711,5.02999973297119,-1.14952909946442,0,16,15.5694566916677,-3.5527136788005e-15,-16.5876527535606,1.95943496413627e-15,-16.5876527535606,-627.978900966702,26.7457264125321,0
7.16785311698914,3.43999981880188,2.2295184135437,-44,-42.2293930053711,5.02999973297119,-1.14952909946442,0,16,15.4712123133343,-3.5527136788005e-15,-16.5537869081362,1.95943496413627e-15,-16.5537869081362,-627.794860839844,26.7399997711182,0
7.21156644821167,3.83999991416931,2.2295184135437,-44,-42.2293930053711,4.54999971389771,-1.14952909946442,0,16,15.3856086028762,-3.5527136788005e-15,-16.5279186558828,1.95943496413627e-15,-16.5279186558828,-627.794860839844,26.5504613233437,0
7.27089262008667,3.82999992370605,2.2295184135437,-44,-42.2293930053711,4.54999971389771,-1.14952909946442,0,16,15.2427847292637,4.72523187201733e-06,-16.500647213885,1.95943496413627e-15,-16.500647213885,-627.794860839844,26.5499992370605,0
7.32243061065674,4.55999994277954,2.2295184135437,-44,-42.2293930053711,3.83999991416931,-1.14952909946442,0,16,15.1073087925425,4.99999987368938e-06,-16.470305443682,1.95943496413627e-15,-16.470305443682,-603.742778449848,26.2801806913631,0
7.41212868690491,5.05999994277954,2.2295184135437,-44,-42.2293930053711,3.04999995231628,-1.14952909946442,0,16,14.9175863892482,4.99999987368938e-06,-16.3961403238703,1.95943496413627e-15,-16.3961403238703,-603.7265625,25.9761169158355,0
7.48791122436523,5.05999994277954,-0.868631303310394,-44,-45.0897064208984,3.04999995231628,5.24290466308594,0,16,14.7530645019929,4.99999987368938e-06,-16.3360100396958,1.95943496413627e-15,-16.3360100396958,-603.601638588763,25.9683304235709,0
7.51871299743652,5.65000009536743,-0.868631303310394,-44,-45.0897064208984,2.25,5.24290466308594,0,16,14.6133227463855,4.99999987368938e-06,-16.2828617380942,1.95943496413627e-15,-16.2828617380942,-576.060392956418,25.6004000329257,0
7.56357574462891,5.65000009536743,-0.868631303310394,-44,-45.0897064208984,2.25,5.24290466308594,0,16,14.5044170045712,0.00128350664815183,-16.222028740319,1.95943496413627e-15,-16.222028740319,-576.030334472656,25.5999984741211,0
7.61062669754028,6.06999969482422,-0.868631303310394,-44,-45.0897064208984,1.37999999523163,5.24290466308594,0,16,14.409212122384,0.00134800001978874,-16.1550943019342,1.95943496413627e-15,-16.1550943019342,-576.030334472656,25.2209595437719,0
7.68836402893066,6.05999994277954,-0.868631303310394,-44,-45.0897064208984,1.37999999523163,5.24290466308594,0,16,14.1958981641293,0.00134800001978874,-16.0400644137972,1.95943496413627e-15,-16.0400644137972,-576.030334472656,25.2199993133545,0
7.7368438243866,6.48999977111816,-0.868631303310394,-44,-45.0897064208984,0.399999976158142,5.24290466308594,0,16,14.1145475591427,0.00134800001978874,-15.9731390856413,1.95943496413627e-15,-15.9731390856413,-550.061551584974,24.8188632407266,0
7.80134105682373,6.5,-0.868631303310394,-44,-45.0897064208984,0.399999976158142,5.24290466308594,0,15.9998964616874,14.0025849278364,0.0544260812302272,-15.8935212502278,1.95942214996895e-15,-15.8935212502278,-548.84033203125,24.7999992370605,0
7.81413078308105,7.06999969482422,-0.868631303310394,-44,-45.0897064208984,-0.469999998807907,5.24290466308594,0,15.9998836517334,13.9645923891657,0.0609930008649826,-15.8767258871233,1.95942056457617e-15,-15.8767258871233,-548.84033203125,24.5265215801023,0
7.88655996322632,7.05999994277954,1.82052183151245,-44,-46.7136421203613,-0.469999998807907,7.09500646591187,0,15.9998836517334,13.7944943153243,0.0609930008649826,-15.7398603964887,1.95942056457617e-15,-15.7398603964887,-548.84033203125,24.3599987030029,0
7.9408106803894,7.25,1.82052183151245,-44,-46.7136421203613,-1.28999996185303,7.09500646591187,0,15.9998836517334,13.6941141110604,0.0609930008649826,-15.6503672691853,1.95942056457617e-15,-15.6503672691853,-505.892145857133,23.9204819134823,0
8.02988409996033,7.32999992370605,1.82052183151245,-44,-46.7136421203613,-2,7.09500646591187,0,15.9990834059773,13.5321845748505,0.160116504544255,-15.527313866951,1.95932256570949e-15,-15.527313866951,-505.845062255859,23.5001844098044,0
8.07107925415039,7.33999967575073,1.82052183151245,-44,-46.7136421203613,-2,7.09500646591187,0,15.9987821578979,13.4440991291008,0.197430998086929,-15.4722424327412,1.95928567457931e-15,-15.4722424327412,-505.845062255859,23.5,0
8.1288857460022,8.55000019073486,1.82052183151245,-44,-46.7136421203613,-2.75999999046326,7.09500646591187,0,15.9987821578979,13.3261792285234,0.197430998086929,-15.4040441416175,1.95928567457931e-15,-15.4040441416175,-461.299389134181,23.0912609147263,0
8.19365835189819,8.55000019073486,1.82052183151245,-44,-46.7136421203613,-2.75999999046326,7.09500646591187,0,15.9987821578979,13.2198272721967,0.197430998086929,-15.3479811968325,1.95928567457931e-15,-15.3479811968325,-461.161987304688,23.0900001525879,0
8.2353093624115,8.78999996185303,1.82052183151245,-44,-46.7136421203613,-3.47000002861023,7.09500646591187,0,15.9987821578979,13.1707474121249,0.197430998086929,-15.3192744620382,1.95928567457931e-15,-15.3192744620382,-461.161987304688,22.6806133324866,0
8.25984215736389,8.78999996185303,1.82052183151245,-44,-46.7136421203613,-3.47000002861023,7.09500646591187,0,15.9987821578979,13.0559593594148,0.197430998086929,-15.2466814010725,1.95928567457931e-15,-15.2466814010725,-461.161987304688,22.6800003051758,0
8.28718900680542,8.78999996185303,1.82052183151245,-44,-46.7136421203613,-3.47000002861023,7.09500646591187,0,15.9971067404666,12.9895993784834,0.303298051055687,-15.2061682013744,1.95908045135073e-15,-15.2061682013744,-461.161987304688,22.6800003051758,0
8.32316374778748,9.07999992370605,1.21495652198792,-44,-47.2901420593262,-4.34999990463257,5.74373579025269,0,15.9970188140869,12.9218758131974,0.308853983879089,-15.1363352587675,1.95906968117777e-15,-15.1363352587675,-425.792907409509,22.3036163678093,0
8.4192225933075,9.75,1.21495652198792,-43,-47.2901420593262,-5.21999979019165,5.74373579025269,0,15.9970188140869,12.7789214223391,0.308853983879089,-15.0120998693876,1.95906968117777e-15,-15.0120998693876,-425.453002929688,21.8906662284924,0
8.43042922019958,9.75,1.21495652198792,-43,-47.2901420593262,-5.21999979019165,5.74373579025269,0,15.9970188140869,12.7569844332987,0.308853983879089,-14.9822855259384,1.95906968117777e-15,-14.9822855259384,-425.453002929688,21.8899993896484,0
8.52664041519165,9.77999973297119,1.21495652198792,-43,-47.2901420593262,-5.8899998664856,5.74373579025269,0,15.9877724346358,12.6031808941529,0.621174619908668,-14.8312018422069,1.95793734724327e-15,-14.8312018422069,-388.403332889885,21.4914319400259,0
8.58798432350159,9.77999973297119,1.21495652198792,-43,-47.2901420593262,-5.8899998664856,5.74373579025269,0,15.9872732162476,12.5127687660747,0.638037025928497,-14.7262118365293,1.95787621175508e-15,-14.7262118365293,-388.270202636719,21.4899997711182,0
8.65763688087463,11.6799993515015,1.21495652198792,-42,-47.2901420593262,-6.53999996185303,5.74373579025269,0,15.9872732162476,12.4279585781271,0.638037025928497,-14.6252234002173,1.95787621175508e-15,-14.6252234002173,-388.270202636719,21.1118297147323,0
8.6912841796875,11.6799993515015,1.21495652198792,-42,-47.2901420593262,-6.53999996185303,5.74373579025269,0,15.9872732162476,12.3676256990332,0.638037025928497,-14.5503059295212,1.95787621175508e-15,-14.5503059295212,-388.270202636719,21.1099987030029,0
8.73702216148376,11.5299997329712,1.21495652198792,-42,-47.2901420593262,-7.17999982833862,5.74373579025269,0,15.9872732162476,12.3159957440624,0.638037025928497,-14.4841838469178,1.95787621175508e-15,-14.4841838469178,-344.515331004762,20.7739118157075,0
8.80698466300964,11.5299997329712,4.64192914962769,-40,-47.0955505371094,-7.17999982833862,4.58940124511719,0,15.9614930731025,12.244663520692,1.10428675301136,-14.3802383298316,1.95471908590425e-15,-14.3802383298316,-342.704193115234,20.4116127861306,0
8.82898712158203,14.1499996185303,4.64192914962769,-40,-47.0955505371094,-7.80999994277954,4.58940124511719,0,15.9601583480835,12.195615195574,1.12842607498169,-14.3123999592614,1.95455563084361e-15,-14.3123999592614,-342.704193115234,20.4099998474121,0
8.88959431648254,14.1499996185303,4.64192914962769,-40,-47.0955505371094,-7.80999994277954,4.58940124511719,0,15.9601583480835,12.1191143810544,1.12842607498169,-14.2048460363112,1.95455563084361e-15,-14.2048460363112,-342.704193115234,20.4099998474121,0
8.95290040969849,13.9099998474121,4.64192914962769,-40,-47.0955505371094,-8.31999969482422,4.58940124511719,0,15.9601583480835,12.0652867113683,1.12842607498169,-14.095354001445,1.95455563084361e-15,-14.095354001445,-303.641727294693,20.0928913227222,0
9.02385234832764,15.2299995422363,4.64192914962769,-39,-47.0955505371094,-8.82999992370605,4.58940124511719,0,15.936603066503,11.9843739225707,1.42113492976061,-13.941783440841,1.95167092167016e-15,-13.941783440841,-303.285583496094,19.7805522988891,0
9.11947584152222,14.8399991989136,8.15818119049072,-39,-46.8740234375,-9.25,3.69381618499756,0,15.9352226257324,11.9168636153311,1.43828892707825,-13.7944265446573,1.95150186531052e-15,-13.7944265446573,-261.586114302966,19.510544457376,0
9.15622591972351,14.8399991989136,8.15818119049072,-39,-46.8740234375,-9.25,3.69381618499756,0,15.9352226257324,11.896558580525,1.43828892707825,-13.720253340922,1.95150186531052e-15,-13.720253340922,-261.501892089844,19.5100002288818,0
9.20879936218262,14.3299999237061,8.15818119049072,-39,-46.8740234375,-9.57999992370605,3.69381618499756,0,15.9352226257324,11.8738071977874,1.43828892707825,-13.6203093211991,1.95150186531052e-15,-13.6203093211991,-261.501892089844,19.2503248024519,0
9.2447247505188,14.3400001525879,8.15818119049072,-39,-46.8740234375,-9.57999992370605,3.69381618499756,0,15.9352226257324,11.8499455396968,1.43828892707825,-13.56077927012,1.95150186531052e-15,-13.56077927012,-261.501892089844,19.25,0
9.28665399551392,14.3400001525879,8.15818119049072,-39,-46.8740234375,-9.57999992370605,3.69381618499756,0,15.7997421867925,11.8213688209284,2.49685583608828,-13.4951154869876,1.93491031553516e-15,-13.4951154869876,-261.501892089844,19.25,0
9.35199856758118,20.1700000762939,8.15818119049072,-35,-46.8740234375,-9.76999950408936,3.69381618499756,0,15.7838191986084,11.8054283998009,2.62126898765564,-13.4271186844614,1.93296031409512e-15,-13.4271186844614,-222.719573974609,19.0298497805354,0
9.39510941505432,20.1700000762939,8.15818119049072,-35,-46.8740234375,-9.76999950408936,3.69381618499756,0,15.7838191986084,11.7896840752391,2.62126898765564,-13.347494519252,1.93296031409512e-15,-13.347494519252,-222.719573974609,18.8514262305447,0
9.43860006332397,19.7199993133545,8.15818119049072,-35,-46.8740234375,-9.92000007629395,3.69381618499756,0,15.7838191986084,11.7774561215084,2.62126898765564,-13.2859949374985,1.93296031409512e-15,-13.2859949374985,-222.719573974609,18.8500003814697,0
9.4804425239563,19.7199993133545,10.726203918457,-33,-47.0443878173828,-9.90999984741211,0.773871004581451,0,15.7398527694933,11.7736015447556,2.86358478248893,-13.2161123079817,1.92757592566019e-15,-13.2161123079817,-193.389058922352,18.7102931046786,0
9.52423858642578,21.5200004577637,10.726203918457,-33,-47.0443878173828,-10.039999961853,0.773871004581451,0,15.6985874176025,11.7703486608101,3.09101390838623,-13.141070793261,1.92252232708611e-15,-13.141070793261,-193.327331542969,18.7099990844727,0
9.59197521209717,21.5200004577637,10.726203918457,-33,-47.0443878173828,-10.0299997329712,0.773871004581451,0,15.6985874176025,11.7666674406078,3.09101390838623,-13.0408155147198,1.92252232708611e-15,-13.0408155147198,-193.327331542969,18.7099990844727,0
9.61009812355042,20.9599990844727,10.726203918457,-33,-47.0443878173828,-10.1599998474121,0.773871004581451,0,15.6985874176025,11.7680628936554,3.09101390838623,-13.006701566988,1.92252232708611e-15,-13.006701566988,-193.327331542969,18.5704573847802,0
9.67636489868164,20.9499988555908,10.726203918457,-33,-47.0443878173828,-10.1599998474121,0.773871004581451,0,15.6985874176025,11.7736342027465,3.09101390838623,-12.921824174437,1.92252232708611e-15,-12.921824174437,-193.327331542969,18.5699996948242,0
9.72828197479248,20.3899993896484,10.726203918457,-33,-47.0443878173828,-10.1999998092651,0.773871004581451,0,15.5997486821281,11.7829707639751,3.5539055580686,-12.845375071151,1.91041831532439e-15,-12.845375071151,-166.738117839503,18.4702097275191,0
9.76230335235596,20.3799991607666,10.726203918457,-33,-47.0443878173828,-10.1899995803833,0.773871004581451,0,15.5919857025146,11.7925585778078,3.59026193618774,-12.7947571517807,1.90946764354479e-15,-12.7947571517807,-166.682052612305,18.4699993133545,0
9.81202340126038,22.189998626709,10.726203918457,-32,-47.0443878173828,-10.2299995422363,0.773871004581451,0,15.5919857025146,11.8127579540202,3.59026193618774,-12.7298257250428,1.90946764354479e-15,-12.7298257250428,-166.682052612305,18.3808403117066,0
9.88776683807373,22.1800003051758,15.4919395446777,-32,-46.8388404846191,-10.210000038147,-2.05017042160034,0,15.5919857025146,11.8636566255947,3.59026193618774,-12.617516988108,1.90946764354479e-15,-12.617516988108,-166.682052612305,18.3799991607666,0
9.90493106842041,21.5200004577637,15.4919395446777,-32,-46.8388404846191,-10.2600002288818,-2.05017042160034,0,15.5919857025146,11.8913904645922,3.59026193618774,-12.5759678599624,1.90946764354479e-15,-12.5759678599624,-142.069357544756,18.3204521957345,0
9.95854043960571,21.5,15.4919395446777,-32,-46.8388404846191,-10.25,-2.05017042160034,0,15.333403535656,11.9419538702053,4.49579650400474,-12.5006064762862,1.87780036371409e-15,-12.5006064762862,-141.88232421875,18.3199996948242,0
10.0197303295135,27.9699993133545,15.4919395446777,-26,-46.8388404846191,-10.3400001525879,-2.05017042160034,0,15.1367225646973,11.9868107772861,5.18455791473389,-12.4250033776987,1.85371381737414e-15,-12.4250033776987,-141.88232421875,18.2535206379954,0
10.077784538269,27.939998626709,15.4919395446777,-26,-46.8388404846191,-10.3400001525879,-2.05017042160034,0,15.1367225646973,12.0195270997368,5.18455791473389,-12.3653273912009,1.85371381737414e-15,-12.3653273912009,-141.88232421875,18.25,0
10.1214957237244,27.3099994659424,15.4919395446777,-26,-46.8388404846191,-10.2600002288818,-2.05017042160034,0,15.1367225646973,12.0652633494445,5.18455791473389,-12.2978466973954,1.85371381737414e-15,-12.2978466973954,-126.421295861334,18.2102840833503,0
10.17205286026,27.2799987792969,15.4919395446777,-26,-46.8388404846191,-10.2600002288818,-2.05017042160034,0,15.1367225646973,12.1107385773144,5.18455791473389,-12.2363757892578,1.85371381737414e-15,-12.2363757892578,-126.310348510742,18.2099990844727,0
10.2185552120209,26.5999984741211,15.4919395446777,-26,-46.8388404846191,-10.0900001525879,-2.05017042160034,0,15.0275369070936,12.15100441009,5.48583144999872,-12.1759635585246,1.84034250464069e-15,-12.1759635585246,-126.310348510742,18.1908886374685,0
10.2756352424622,26.5599994659424,15.4919395446777,-26,-46.8388404846191,-10.0799999237061,-2.05017042160034,0,14.9437532424927,12.1946728350865,5.71701383590698,-12.1140916311035,1.83008202166222e-15,-12.1140916311035,-126.310348510742,18.1900005340576,0
10.3032426834106,28.1999988555908,20.5221576690674,-24,-44.8074531555176,-9.71999931335449,-8.31764984130859,0,14.9437532424927,12.2362252559073,5.71701383590698,-12.0637119898995,1.83008202166222e-15,-12.0637119898995,-117.101981770172,18.2095067112552,0
10.3749487400055,28.1599998474121,20.5221576690674,-24,-44.8074531555176,-9.69999980926514,-8.31764984130859,0,14.9437532424927,12.3253417947977,5.71701383590698,-11.9722455916965,1.83008202166222e-15,-11.9722455916965,-116.86954498291,18.2099990844727,0
10.4360566139221,27.3400001525879,20.5221576690674,-24,-44.8074531555176,-9.31999969482422,-8.31764984130859,0,14.9437532424927,12.41785398328,5.71701383590698,-11.8748083361848,1.83008202166222e-15,-11.8748083361848,-116.86954498291,18.2664033795485,0
10.5045204162598,34.7199974060059,20.5221576690674,-15,-44.8074531555176,-8.85999965667725,-8.31764984130859,0,14.0513059959525,12.5537365973061,7.63160044900302,-11.7362410299974,1.7207886709041e-15,-11.7362410299974,-112.585092102264,18.37970550686,0
10.5741348266602,34.6699981689453,20.5221576690674,-15,-44.8074531555176,-8.84000015258789,-8.31764984130859,0,13.9874105453491,12.6808707985663,7.7686767578125,-11.6196147159304,1.71296372895744e-15,-11.6196147159304,-112.573623657227,18.3799991607666,0
10.6252629756927,33.8600006103516,20.5221576690674,-15,-44.8074531555176,-8.35999965667725,-8.31764984130859,0,13.9874105453491,12.7953899184846,7.7686767578125,-11.511198614706,1.71296372895744e-15,-11.511198614706,-113.571840316054,18.519733730244,0
10.6902072429657,33.8199996948242,20.5221576690674,-15,-44.8074531555176,-8.34999942779541,-8.31764984130859,0,13.9874105453491,12.9147427681721,7.7686767578125,-11.39868090875,1.71296372895744e-15,-11.39868090875,-113.573745727539,18.5200004577637,0
10.733874797821,32.9500007629395,20.5221576690674,-15,-44.8074531555176,-7.78999996185303,-8.31764984130859,0,13.4902682412114,13.0037895893536,8.59357517044188,-11.3242294898842,1.65208138377032e-15,-11.3242294898842,-108.932352117395,18.6885269974518,0
10.7786898612976,32.9300003051758,26.8852958679199,-15,-41.3025436401367,-7.77999973297119,-11.8368787765503,0,13.4028339385986,13.1138524693054,8.7386531829834,-11.2395090731523,1.64137377480492e-15,-11.2395090731523,-108.89176940918,18.6900005340576,0
10.8253467082977,35.7000007629395,26.8852958679199,-11,-41.3025436401367,-7.25999975204468,-11.8368787765503,0,13.4028339385986,13.3051082445078,8.7386531829834,-11.0995677330316,1.64137377480492e-15,-11.0995677330316,-108.89176940918,18.8650281927796,0
10.868674993515,35.7000007629395,26.8852958679199,-11,-41.3025436401367,-7.25999975204468,-11.8368787765503,0,13.4028339385986,13.4572168626294,8.7386531829834,-10.9926036383851,1.64137377480492e-15,-10.9926036383851,-108.89176940918,18.8799991607666,0
10.9111113548279,34.6800003051758,26.8852958679199,-11,-41.3025436401367,-6.82999992370605,-11.8368787765503,0,13.4028339385986,13.5608782578113,8.7386531829834,-10.9059054512119,1.64137377480492e-15,-10.9059054512119,-108.237228289031,19.0897679030371,0
11.0009455680847,34.6699981689453,26.8852958679199,-11,-41.3025436401367,-6.82999992370605,-11.8368787765503,0,0.476107566570361,13.720544325831,15.7420574507826,-10.7837751873469,5.83063609781761e-17,-10.7837751873469,-108.236503601074,19.0900001525879,0
11.0124745368958,34.6699981689453,26.8852958679199,45,-41.3025436401367,-6.82999992370605,-11.8368787765503,0,3.00000010611257e-06,13.7617682221881,16,-10.7496979095337,3.67394031065145e-22,-10.7496979095337,-108.236503601074,19.2884299516817,0
11.1199290752411,43.7199974060059,26.8852958679199,45,-41.3025436401367,-5.73999977111816,-11.8368787765503,0,3.00000010611257e-06,14.1167625735802,16,-10.4509283179086,3.67394031065145e-22,-10.4509283179086,-113.907797579206,19.5098147723555,0
11.1966080665588,43.6699981689453,29.7913837432861,45,-34.8077163696289,-5.71000003814697,-12.6983432769775,0,3.00000010611257e-06,14.3515800961002,16,-10.2430071236487,3.67394031065145e-22,-10.2430071236487,-113.912582397461,19.5100002288818,0
11.2200155258179,43.6399993896484,29.7913837432861,45,-34.8077163696289,-5.15000009536743,-12.6983432769775,0,3.00000010611257e-06,14.4664156570444,16,-10.1236123751169,3.67394031065145e-22,-10.1236123751169,-113.912582397461,19.7296940905747,0
11.2955689430237,43.629997253418,29.7913837432861,45,-34.8077163696289,-5.11999988555908,-12.6983432769775,0,3.00000010611257e-06,14.6810435763747,16,-9.89276386133248,3.67394031065145e-22,-9.89276386133248,-113.931316526575,19.7303728157245,0
11.3106043338776,43.629997253418,29.7913837432861,45,-34.8077163696289,-4.50999975204468,-12.6983432769775,0,3.00000010611257e-06,14.7565388362185,16,-9.81517304490796,3.67394031065145e-22,-9.81517304490796,-125.864956772337,19.9681480276709,0
11.4105830192566,43.6699981689453,29.7913837432861,45,-34.8077163696289,-4.46999979019165,-12.6983432769775,0,3.00000010611257e-06,15.0898324904413,16,-9.44608681213868,3.67394031065145e-22,-9.44608681213868,-125.957870483398,19.9699993133545,0
11.4252731800079,43.6800003051758,29.7913837432861,45,-34.8077163696289,-3.86999988555908,-12.6983432769775,0,3.00000010611257e-06,15.1762666730847,16,-9.34014625391048,3.67394031065145e-22,-9.34014625391048,-125.957870483398,20.2194788215512,0
11.4934647083282,43.7199974060059,29.7913837432861,47,-34.8077163696289,-3.21000003814697,-12.6983432769775,0,3.00000010611257e-06,15.5176317553071,16,-8.91115004439005,3.67394031065145e-22,-8.91115004439005,-140.074342828999,20.4797151973623,0
11.5998642444611,43.7900009155273,29.7913837432861,50,-34.8077163696289,-3.17999982833862,-12.6983432769775,0,3.00000010611257e-06,15.9205477638878,16,-8.38928137485392,3.67394031065145e-22,-8.38928137485392,-140.089797973633,20.7397184801318,0
11.6295478343964,43.8099975585938,38.1023750305176,50,-24.9943695068359,-2.5699999332428,-12.3058252334595,0,3.00000010611257e-06,16.0113217649304,16,-8.25159039690858,3.67394031065145e-22,-8.25159039690858,-140.089797973633,20.7399997711182,0
11.6934809684753,43.8899993896484,38.1023750305176,52,-24.9943695068359,-1.99000000953674,-12.3058252334595,0,3.00000010611257e-06,16.3617160448996,16,-7.73876359542525,3.67394031065145e-22,-7.73876359542525,-108.661116548686,20.9898039099446,0
11.7798924446106,43.9699974060059,38.1023750305176,52,-24.9943695068359,-1.96999990940094,-12.3058252334595,0,3.00000010611257e-06,16.8212356313173,16,-7.03728406477431,3.67394031065145e-22,-7.03728406477431,-108.636474609375,20.9899997711182,0
11.8468985557556,44.0499992370605,38.1023750305176,54,-24.9943695068359,-1.49000000953674,-12.3058252334595,0,3.00000010611257e-06,17.1112164072725,16,-6.57007930964292,3.67394031065145e-22,-6.57007930964292,-108.636474609375,21.2379061907247,0
11.882688999176,44.0699996948242,38.1023750305176,54,-24.9943695068359,-1.49000000953674,-12.3058252334595,0,3.00000010611257e-06,17.2170268220882,16,-6.38957960086076,3.67394031065145e-22,-6.38957960086076,-108.636474609375,21.2399997711182,0
11.9057676792145,44.0900001525879,38.1023750305176,57,-24.9943695068359,-1.07999992370605,-12.3058252334595,0,3.00000010611257e-06,17.3891889728327,16,-6.08798789373042,3.67394031065145e-22,-6.08798789373042,-126.417496722401,21.4679666343919,0
11.9738438129425,44.1199989318848,38.1023750305176,57,-24.9943695068359,-1.0900000333786,-12.3058252334595,0,3.00000010611257e-06,17.6193597150418,16,-5.67031022163945,3.67394031065145e-22,-5.67031022163945,-126.576042175293,21.4699993133545,0
12.0274760723114,44.1499977111816,40.2843132019043,59,-16.7867088317871,-0.639999985694885,-10.005199432373,0,3.00000010611257e-06,17.776102107893,16,-5.34752805062376,3.67394031065145e-22,-5.34752805062376,-126.576042175293,21.6864431274505,0
12.0429480075836,44.1800003051758,40.2843132019043,59,-16.7867088317871,-0.639999985694885,-10.005199432373,0,3.00000010611257e-06,17.9023386447599,16,-5.08441814461143,3.67394031065145e-22,-5.08441814461143,-126.576042175293,21.689998626709,0
12.1173648834229,44.25,40.2843132019043,61,-16.7867088317871,-0.319999992847443,-10.005199432373,0,3.00000010611257e-06,18.1950638528278,16,-4.40212444593093,3.67394031065145e-22,-4.40212444593093,-142.877523319966,21.8897767418747,0
12.1954588890076,44.2799987792969,40.2843132019043,61,-16.7867088317871,-0.310000002384186,-10.005199432373,0,3.00000010611257e-06,18.4425251499295,16,-3.78321250376131,3.67394031065145e-22,-3.78321250376131,-142.895690917969,21.8899993896484,0
12.2306687831879,44.3099975585938,40.2843132019043,63,-16.7867088317871,-0.0399999991059303,-10.005199432373,0,3.00000010611257e-06,18.5447564598081,16,-3.46996304255572,3.67394031065145e-22,-3.46996304255572,-142.895690917969,22.0696397601002,0
12.2939229011536,44.3499984741211,40.2843132019043,63,-16.7867088317871,-0.0399999991059303,-10.005199432373,0,3.00000010611257e-06,18.7203558752112,16,-2.88664111626639,3.67394031065145e-22,-2.88664111626639,-142.895690917969,22.0699996948242,0
12.3354983329773,44.3999977111816,41.1828079223633,65,-7.94483613967896,0.189999997615814,-8.05611228942871,0,3.00000010611257e-06,18.8410170055609,16,-2.44163350469461,3.67394031065145e-22,-2.44163350469461,-161.860760147407,22.2154181593352,0
12.427618265152,44.4599990844727,41.1828079223633,67,-7.94483613967896,0.389999985694885,-8.05611228942871,0,3.00000010611257e-06,19.0580862084932,16,-1.47904265978995,3.67394031065145e-22,-1.47904265978995,-162.458221435547,22.3694558672975,0
12.5127155780792,44.4899978637695,41.1828079223633,69,-7.94483613967896,0.519999980926514,-8.05611228942871,0,3.00000010611257e-06,19.1857904738079,16,-0.633378846504701,3.67394031065145e-22,-0.633378846504701,-186.208922801774,22.4797316455287,0
12.543155670166,44.5,41.1828079223633,69,-7.94483613967896,0.519999980926514,-8.05611228942871,0,3.00000010611257e-06,19.2145711022132,16,-0.372526165232858,3.67394031065145e-22,-0.372526165232858,-186.266906738281,22.4799995422363,0
12.5956127643585,44.5200004577637,41.1828079223633,69,-7.94483613967896,0.529999971389771,-8.05611228942871,0,3.00000010611257e-06,19.2535942165307,16,0.0505943491322493,3.67394031065145e-22,0.0505943491322493,-186.266906738281,22.4799995422363,0
12.6721277236938,44.5499992370605,41.1828079223633,71,-7.94483613967896,0.75,-8.05611228942871,0,3.00000010611257e-06,19.2901221260528,16,0.699760711619201,3.67394031065145e-22,0.699760711619201,-186.266906738281,22.5795466001524,0
12.6948161125183,44.5599975585938,41.1828079223633,73,-7.94483613967896,0.849999964237213,-8.05611228942871,0,3.00000010611257e-06,19.2972011079609,16,0.898140319554171,3.67394031065145e-22,0.898140319554171,-205.57503282149,22.6694084847818,0
12.7547492980957,44.5599975585938,41.1828079223633,73,-7.94483613967896,0.85999995470047,-8.05611228942871,0,3.00000010611257e-06,19.3123476070486,16,1.41943144517646,3.67394031065145e-22,1.41943144517646,-205.702789306641,22.6700000762939,0
12.7983963489532,44.5499992370605,43.2814483642578,73,3.73537015914917,0.879999995231628,-6.0440845489502,0,3.00000010611257e-06,19.3181526834945,16,1.79503178534417,3.67394031065145e-22,1.79503178534417,-205.702789306641,22.6700000762939,0
12.8379390239716,44.5599975585938,43.2814483642578,75,3.73537015914917,0.930000007152557,-6.0440845489502,0,3.00000010611257e-06,19.3009707681268,16,2.18392456739444,3.67394031065145e-22,2.18392456739444,-205.702789306641,22.7286458946173,0
12.9037957191467,44.5599975585938,43.2814483642578,77,3.73537015914917,0.959999978542328,-6.0440845489502,0,3.00000010611257e-06,19.2481370668993,16,2.98443371618445,3.67394031065145e-22,2.98443371618445,-245.079415518413,22.7784243834682,0
12.9338231086731,44.5699996948242,43.2814483642578,77,3.73537015914917,0.959999978542328,-6.0440845489502,0,3.00000010611257e-06,19.2324298535702,16,3.17848696538074,3.67394031065145e-22,3.17848696538074,-246.359634399414,22.7799987792969,0
13.0127084255219,44.5499992370605,43.2814483642578,79,3.73537015914917,0.979999959468842,-6.0440845489502,0,3.00000010611257e-06,19.1436513423136,16,3.99527867719766,3.67394031065145e-22,3.99527867719766,-246.359634399414,22.8199423654358,0
