datetime,roll_c,roll_m,yaw_c,yaw_m,pitch_c,pitch_m,aspd_m,vx_c,vx_m,vy_c,vy_m,vz_c,vz_m,aspd_error,alt_error,fault
0.0510540008544922,37.9500007629395,12.4079914093018,92,-86.0192489624023,-4.36999988555908,1.68579840660095,NaN,-12.0904054641724,1.23543217489696,-10.479603767395,-20.1270326680826,-1.48064757899753e-15,-20.1270326680826,NaN,NaN,0
0.0958929061889648,37.9500007629395,12.4079914093018,92,-86.0192489624023,-4.34999990463257,1.68579840660095,0,-12.0904054641724,1.27491404433699,-10.479603767395,-20.1279036102377,-1.48064757899753e-15,-20.1279036102377,-361.223999023438,-0.389999985694885,0
0.133516788482666,39.8899993896484,12.4079914093018,92,-86.0192489624023,-4.69000005722046,1.68579840660095,0,-1.17366181991239,1.35548175652554,-15.4641152974844,-20.101664355416,-1.43732113647024e-16,-20.101664355416,-381.558476119682,-0.535008525246447,0
0.205680370330811,39.8899993896484,12.4079914093018,92,-86.0192489624023,-4.65999984741211,1.68579840660095,0,-3.00000010611257e-06,1.49026712208345,-16,-20.0429572857157,-3.67394031065145e-22,-20.0429572857157,-382.258422851563,-0.539999961853027,0
0.242837905883789,-44.9899978637695,12.4079914093018,-134,-86.0192489624023,-7.01999998092651,1.68579840660095,0,-3.00000010611257e-06,1.58629562067412,-16,-20.0034385046727,-3.67394031065145e-22,-20.0034385046727,-382.258422851563,-0.67657725622001,0
0.259454488754272,-44.9899978637695,12.4079914093018,-134,-86.0192489624023,-7,1.68579840660095,0,-3.00000010611257e-06,1.65283015892586,-16,-19.9750255730434,-3.67394031065145e-22,-19.9750255730434,-382.258422851563,-0.680000007152557,0
0.334516525268555,-44.9899978637695,23.9814643859863,-134,-83.8976898193359,-9.26999950408936,0.759269952774048,0,-3.00000010611257e-06,1.88093389290585,-16,-19.8602927465825,-3.67394031065145e-22,-19.8602927465825,-292.895315855667,-0.819914574375526,0
0.387206792831421,-44.9899978637695,23.9814643859863,-134,-83.8976898193359,-9.28999996185303,0.759269952774048,0,-3.00000010611257e-06,2.0012373440448,-16,-19.8010707684874,-3.67394031065145e-22,-19.8010707684874,-292.840759277344,-0.819999992847443,0
0.443448781967163,-44.9899978637695,23.9814643859863,-134,-83.8976898193359,-11.5900001525879,0.759269952774048,0,-3.00000010611257e-06,2.15933227587517,-16,-19.7061629343945,-3.67394031065145e-22,-19.7061629343945,-292.840759277344,-0.949592193731099,0
0.477510690689087,-44.9899978637695,23.9814643859863,-134,-83.8976898193359,-11.6300001144409,0.759269952774048,0,-3.00000010611257e-06,2.24112464991389,-16,-19.6468435228689,-3.67394031065145e-22,-19.6468435228689,-292.840759277344,-0.949999988079071,0
0.543447494506836,-44.9899978637695,23.9814643859863,-134,-83.8976898193359,-13.9799995422363,0.759269952774048,0,-3.00000010611257e-06,2.31409283186448,-16,-19.5591558166105,-3.67394031065145e-22,-19.5591558166105,-275.420294175898,-1.08918535477161,0
0.55890965461731,-44.9899978637695,23.9814643859863,-134,-83.8976898193359,-14,0.759269952774048,0,-3.00000010611257e-06,2.33080922367061,-16,-19.5360082701729,-3.67394031065145e-22,-19.5360082701729,-275.318328857422,-1.0900000333786,0
0.62353777885437,-44.9899978637695,23.9814643859863,-134,-83.8976898193359,-14.0199995040894,0.759269952774048,0,-3.00000010611257e-06,2.33410930431336,-16,-19.4601586562707,-3.67394031065145e-22,-19.4601586562707,-275.318328857422,-1.0900000333786,0
0.723177194595337,-44.9799995422363,23.9814643859863,-134,-83.8976898193359,-16.2799987792969,0.759269952774048,0,-3.00000010611257e-06,2.26017308604524,-16,-19.3473828826797,-3.67394031065145e-22,-19.3473828826797,-275.318328857422,-1.23971587241059,0
0.790988206863403,-44.9699974060059,-3.41339087486267,-134,-82.3858337402344,-18.5299987792969,-1.7559289932251,0,-3.00000010611257e-06,2.15918603642845,-16,-19.276088534261,-3.67394031065145e-22,-19.276088534261,-252.758145105511,-1.3898763345166,0
0.817175626754761,-44.9599990844727,-3.41339087486267,-134,-82.3858337402344,-18.5200004577637,-1.7559289932251,0,-3.00000010611257e-06,2.08376053993007,-16,-19.2412472355654,-3.67394031065145e-22,-19.2412472355654,-252.739532470703,-1.38999998569489,0
0.873978614807129,-44.9500007629395,-3.41339087486267,-134,-82.3858337402344,-20.7299995422363,-1.7559289932251,0,-3.00000010611257e-06,1.98598052635297,-16,-19.1989484192789,-3.67394031065145e-22,-19.1989484192789,-252.739532470703,-1.54985301061389,0
0.954994916915894,-44.8999977111816,-3.41339087486267,-134,-82.3858337402344,-22.7399997711182,-1.7559289932251,0,-3.00000010611257e-06,1.74544745448596,-16,-19.0975201684736,-3.67394031065145e-22,-19.0975201684736,-237.290242692495,-1.70970363925027,0
1.03693294525146,-44.8400001525879,-3.41339087486267,-134,-82.3858337402344,-22.7099990844727,-1.7559289932251,0,-3.00000010611257e-06,1.59579419664418,-16,-19.0350514250047,-3.67394031065145e-22,-19.0350514250047,-237.261581420898,-1.70999991893768,0
1.06509733200073,-44.7999992370605,-3.41339087486267,-134,-82.3858337402344,-23.4200000762939,-1.7559289932251,0,-3.00000010611257e-06,1.47606653414955,-16,-18.9938654976926,-3.67394031065145e-22,-18.9938654976926,-237.261581420898,-1.8436950343657,0
1.13780951499939,-44.7099990844727,-3.41339087486267,-134,-82.3858337402344,-23.019998550415,-1.7559289932251,0,-3.00000010611257e-06,1.28260348820737,-16,-18.9297625506867,-3.67394031065145e-22,-18.9297625506867,-204.791361815999,-1.93967201939834,0
1.183926820755,-44.6100006103516,-3.41339087486267,-134,-82.3858337402344,-22.6099987030029,-1.7559289932251,0,-3.00000010611257e-06,1.16377612798173,-16,-18.8655056584403,-3.67394031065145e-22,-18.8655056584403,-204.672622680664,-1.93999993801117,0
1.24888563156128,-44.5200004577637,-26.6137638092041,-134,-80.7451324462891,-22.189998626709,-8.19253063201904,0,-3.00000010611257e-06,1.06972798332062,-16,-18.780910361542,-3.67394031065145e-22,-18.780910361542,-204.672622680664,-1.97925073290641,0
1.26175975799561,-44.5,-26.6137638092041,-134,-80.7451324462891,-22.0499992370605,-8.19253063201904,0,-3.00000010611257e-06,1.03438256574736,-16,-18.7533458723345,-3.67394031065145e-22,-18.7533458723345,-204.672622680664,-1.9799998998642,0
1.33981132507324,-44.4300003051758,-26.6137638092041,-134,-80.7451324462891,-21.6599998474121,-8.19253063201904,0,-3.00000010611257e-06,0.880735270018925,-16,-18.6568028639581,-3.67394031065145e-22,-18.6568028639581,-179.854276030941,-1.93010552925694,0
1.39978742599487,-44.3899993896484,-26.6137638092041,-134,-80.7451324462891,-21.5200004577637,-8.19253063201904,0,-3.00000010611257e-06,0.780064403634599,-16,-18.6218652468622,-3.67394031065145e-22,-18.6218652468622,-179.8017578125,-1.92999994754791,0
1.42374753952026,-44.3499984741211,-26.6137638092041,-134,-80.7451324462891,-21.4099998474121,-8.19253063201904,0,-3.00000010611257e-06,0.659338099714831,-16,-18.5955222400503,-3.67394031065145e-22,-18.5955222400503,-179.8017578125,-1.92999994754791,0
1.47913885116577,-44.2799987792969,-26.6137638092041,-134,-80.7451324462891,-21.3400001525879,-8.19253063201904,0,-3.00000010611257e-06,0.434471842146025,-16,-18.5649454892373,-3.67394031065145e-22,-18.5649454892373,-179.8017578125,-1.82098318207754,0
1.53113532066345,-44.1599998474121,-26.6137638092041,-134,-80.7451324462891,-21.2899990081787,-8.19253063201904,0,-3.00000010611257e-06,0.240440390777012,-16,-18.5254828882535,-3.67394031065145e-22,-18.5254828882535,-150.629080563995,-1.64133654731577,0
1.58678841590881,-44.0699996948242,-26.6137638092041,-134,-80.7451324462891,-21.2299995422363,-8.19253063201904,0,-3.00000010611257e-06,0.134106340446216,-16,-18.4853813806523,-3.67394031065145e-22,-18.4853813806523,-150.410842895508,-1.63999998569489,0
1.63537192344666,-43.9599990844727,-31.7332191467285,-134,-83.1854782104492,-21.1099987030029,-11.8185987472534,0,-3.00000010611257e-06,0.0606444774508873,-16,-18.4336800924746,-3.67394031065145e-22,-18.4336800924746,-150.410842895508,-1.63999998569489,0
1.70163726806641,-43.7099990844727,-31.7332191467285,-134,-83.1854782104492,-20.8699989318848,-11.8185987472534,0,-3.00000010611257e-06,-0.0568034400014781,-16,-18.3198369487171,-3.67394031065145e-22,-18.3198369487171,-150.410842895508,-1.43173228693801,0
1.73700022697449,-43.5999984741211,-31.7332191467285,-134,-83.1854782104492,-20.7399997711182,-11.8185987472534,0,-3.00000010611257e-06,-0.128295190759837,-16,-18.2584211450409,-3.67394031065145e-22,-18.2584211450409,-100.334542419699,-1.12211900292853,0
1.79172015190125,-43.5099983215332,-31.7332191467285,-134,-83.1854782104492,-20.6199989318848,-11.8185987472534,0,-3.00000010611257e-06,-0.204338413991799,-16,-18.2080526208665,-3.67394031065145e-22,-18.2080526208665,-99.9898910522461,-1.12000000476837,0
1.83002328872681,-43.4300003051758,-31.7332191467285,-134,-83.1854782104492,-20.5200004577637,-11.8185987472534,0,-3.00000010611257e-06,-0.318689294814598,-16,-18.1667303736879,-3.67394031065145e-22,-18.1667303736879,-99.9898910522461,-1.12000000476837,0
1.85671019554138,-43.3600006103516,-31.7332191467285,-134,-83.1854782104492,-20.4300003051758,-11.8185987472534,0,-3.00000010611257e-06,-0.456497707456341,-16,-18.1305644169587,-3.67394031065145e-22,-18.1305644169587,-99.9898910522461,-0.761426713003504,0
1.92190289497375,-43.2700004577637,-31.7332191467285,-134,-83.1854782104492,-20.3099994659424,-11.8185987472534,0,-3.00000010611257e-06,-0.685263461498173,-16,-18.0819156315427,-3.67394031065145e-22,-18.0819156315427,-99.9898910522461,-0.759999990463257,0
1.95320010185242,-43.2299995422363,-35.6084861755371,-134,-88.4850463867188,-20.2299995422363,-16.2500915527344,0,-3.00000010611257e-06,-0.847357566575141,-16,-18.059338532631,-3.67394031065145e-22,-18.059338532631,-64.671302377105,-0.301376754455432,0
2.0403003692627,-43.1599998474121,-35.6084861755371,-134,-88.4850463867188,-20.1099987030029,-16.2500915527344,0,-3.00000010611257e-06,-1.11103171799181,-16,-18.0296853909876,-3.67394031065145e-22,-18.0296853909876,-64.5652770996094,0.209498778001523,0
2.07888507843018,-43.0999984741211,-35.6084861755371,-134,-88.4850463867188,-19.9799995422363,-16.2500915527344,0,-3.00000010611257e-06,-1.37257154979812,-16,-18.006111612625,-3.67394031065145e-22,-18.006111612625,-64.5652770996094,0.209999993443489,0
2.19118046760559,-42.9199981689453,-35.6084861755371,-134,-88.4850463867188,-19.7899990081787,-16.2500915527344,0,-3.00000010611257e-06,-1.83357445578044,-16,-17.9669351824592,-3.67394031065145e-22,-17.9669351824592,-41.8357838625983,0.759631036909249,0
2.26677799224854,-42.7999992370605,-35.6084861755371,-134,-88.4850463867188,-19.689998626709,-16.2500915527344,0,-3.00000010611257e-06,-2.17022264989113,-16,-17.9253856393877,-3.67394031065145e-22,-17.9253856393877,-41.8205261230469,1.33953155113596,0
2.33843779563904,-42.6199989318848,-35.6084861755371,-134,-88.4850463867188,-19.4799995422363,-16.2500915527344,0,-3.00000010611257e-06,-2.56096172753551,-16,-17.9026443279972,-3.67394031065145e-22,-17.9026443279972,-29.4974571614096,1.95660589321281,0
2.35495924949646,-42.6100006103516,-35.6084861755371,-134,-88.4850463867188,-19.4200000762939,-16.2500915527344,0,-3.00000010611257e-06,-2.65725270546863,-16,-17.9014533059354,-3.67394031065145e-22,-17.9014533059354,-29.4296264648438,1.95999991893768,0
2.44389772415161,-41.5599975585938,-38.8911666870117,-134,-94.1753616333008,-19.4499988555908,-18.6106052398682,0,-3.00000010611257e-06,-3.18675382549292,-16,-17.9196577492132,-3.67394031065145e-22,-17.9196577492132,-29.4296264648438,2.59077527549722,0
2.47706246376038,-41.5400009155273,-38.8911666870117,-134,-94.1753616333008,-19.5100002288818,-18.6106052398682,0,-3.00000010611257e-06,-3.41342715758796,-16,-17.930444846279,-3.67394031065145e-22,-17.930444846279,-29.4296264648438,2.60999989509583,0
2.53139781951904,-40.2199974060059,-38.8911666870117,-134,-94.1753616333008,-19.8799991607666,-18.6106052398682,0,-3.00000010611257e-06,-3.84537854078288,-16,-17.9555124030393,-3.67394031065145e-22,-17.9555124030393,-32.2797386552333,3.2675268485624,0
2.5817174911499,-40.129997253418,-38.8911666870117,-134,-94.1753616333008,-20.0599994659424,-18.6106052398682,0,-3.00000010611257e-06,-4.20480819695523,-16,-17.9725186585904,-3.67394031065145e-22,-17.9725186585904,-32.2904586791992,3.26999998092651,0
2.61794185638428,-40.0299987792969,-38.8911666870117,-134,-94.1753616333008,-20.2099990844727,-18.6106052398682,0,-3.00000010611257e-06,-4.44447702820116,-16,-17.9818434362242,-3.67394031065145e-22,-17.9818434362242,-32.2904586791992,3.26999998092651,0
2.66692638397217,-38.5599975585938,-38.8911666870117,-134,-94.1753616333008,-20.3299999237061,-18.6106052398682,0,-3.00000010611257e-06,-4.74606308252707,-16,-17.9883947643096,-3.67394031065145e-22,-17.9883947643096,-32.2904586791992,3.92908252031428,0
2.7772901058197,-36.8499984741211,-38.8911666870117,-134,-94.1753616333008,-20.5100002288818,-18.6106052398682,0,-3.00000010611257e-06,-5.42914792166985,-16,-17.9614737052525,-3.67394031065145e-22,-17.9614737052525,-41.0513346662781,4.56648308353011,0
2.83983993530273,-36.6599998474121,-34.489128112793,-134,-105.312232971191,-20.5699996948242,-21.8970184326172,0,-3.00000010611257e-06,-5.82327968505601,-16,-17.9320320737664,-3.67394031065145e-22,-17.9320320737664,-41.099739074707,5.21925755842804,0
2.86222362518311,-35.0099983215332,-34.489128112793,-134,-105.312232971191,-20.6099987030029,-21.8970184326172,0,-3.00000010611257e-06,-6.03025666929908,-16,-17.9035207106813,-3.67394031065145e-22,-17.9035207106813,-41.099739074707,5.21999979019165,0
2.91454100608826,-34.8600006103516,-34.489128112793,-134,-105.312232971191,-20.6199989318848,-21.8970184326172,0,-3.00000010611257e-06,-6.45251658583574,-16,-17.8381899228045,-3.67394031065145e-22,-17.8381899228045,-41.099739074707,5.21999979019165,0
2.95235586166382,-33.2199974060059,-34.489128112793,-134,-105.312232971191,-20.5900001525879,-21.8970184326172,0,-3.00000010611257e-06,-6.72505188175971,-16,-17.7939574146481,-3.67394031065145e-22,-17.7939574146481,-25.4918707845492,5.88911006953221,0
3.02187895774841,-33.1699981689453,-34.489128112793,-134,-105.312232971191,-20.5100002288818,-21.8970184326172,0,-3.00000010611257e-06,-7.09359806615777,-16,-17.7162163578565,-3.67394031065145e-22,-17.7162163578565,-25.4711151123047,5.8899998664856,0
3.08159780502319,-31.4499988555908,-34.489128112793,-134,-105.312232971191,-20.4499988555908,-21.8970184326172,0,-3.00000010611257e-06,-7.5055435644245,-16,-17.6378656546298,-3.67394031065145e-22,-17.6378656546298,-25.4711151123047,6.57497138095689,0
3.12231588363647,-31.4599990844727,-34.7842254638672,-134,-112.965942382813,-20.4699993133545,-23.8534564971924,0,-3.00000010611257e-06,-7.78432425139278,-16,-17.5818389144169,-3.67394031065145e-22,-17.5818389144169,-25.4711151123047,6.57999992370605,0
3.15461897850037,-29.5,-34.7842254638672,-134,-112.965942382813,-20.5699996948242,-23.8534564971924,0,-3.00000010611257e-06,-8.06976800102429,-16,-17.5206083622111,-3.67394031065145e-22,-17.5206083622111,-41.6079428208616,7.2877700853601,0
3.23187804222107,-27.6399993896484,-34.7842254638672,-134,-112.965942382813,-20.8699989318848,-23.8534564971924,0,-3.00000010611257e-06,-8.57166908849727,-16,-17.4105400955656,-3.67394031065145e-22,-17.4105400955656,-41.6587829589844,8.0260649431606,0
3.2599790096283,-27.6599998474121,-34.7842254638672,-134,-112.965942382813,-20.9099998474121,-23.8534564971924,0,-3.00000010611257e-06,-8.74878470985004,-16,-17.3716545098814,-3.67394031065145e-22,-17.3716545098814,-41.6587829589844,8.02999973297119,0
3.3491735458374,-25.6800003051758,-34.7842254638672,-134,-112.965942382813,-21,-23.8534564971924,0,-3.00000010611257e-06,-9.21236791417613,-16,-17.2729197091049,-3.67394031065145e-22,-17.2729197091049,-45.3187789758371,8.78656663112388,0
3.39960336685181,-25.7399997711182,-34.7842254638672,-134,-112.965942382813,-21.1399993896484,-23.8534564971924,0,-3.00000010611257e-06,-9.56491584149975,-16,-17.1898739518882,-3.67394031065145e-22,-17.1898739518882,-45.3353881835938,8.78999996185303,0
3.43767046928406,-23.75,-34.7842254638672,-134,-112.965942382813,-21.2399997711182,-23.8534564971924,0,-3.00000010611257e-06,-9.83263359358762,-16,-17.1317191531508,-3.67394031065145e-22,-17.1317191531508,-45.3353881835938,9.54977600030002,0
3.46733808517456,-23.769998550415,-34.7842254638672,-134,-112.965942382813,-21.2899990081787,-23.8534564971924,0,-3.00000010611257e-06,-9.97476070939073,-16,-17.1019385763056,-3.67394031065145e-22,-17.1019385763056,-45.3353881835938,9.56999969482422,0
3.5210382938385,-23.8099994659424,-34.7842254638672,-134,-112.965942382813,-21.4200000762939,-23.8534564971924,0,-3.00000010611257e-06,-10.3609332588927,-16,-17.017696376776,-3.67394031065145e-22,-17.017696376776,-45.3353881835938,9.56999969482422,0
3.54845380783081,-21.5699996948242,-34.7842254638672,-134,-112.965942382813,-21.4599990844727,-23.8534564971924,0,-3.00000010611257e-06,-10.4754099430213,-16,-16.9878138675088,-3.67394031065145e-22,-16.9878138675088,-67.2359634266191,10.346537384705,0
3.62122988700867,-21.5900001525879,-30.3573226928711,-134,-118.152793884277,-21.689998626709,-22.1772289276123,0,-3.00000010611257e-06,-10.9621059712252,-16,-16.8613625743,-3.67394031065145e-22,-16.8613625743,-67.3336029052734,10.3499994277954,0
3.65241169929504,-19.3299999237061,-30.3573226928711,-134,-118.152793884277,-21.8199996948242,-22.1772289276123,0,-3.00000010611257e-06,-11.1514803980182,-16,-16.8151371599914,-3.67394031065145e-22,-16.8151371599914,-67.3336029052734,11.1348178401056,0
3.73581647872925,-17.1800003051758,-30.3573226928711,-134,-118.152793884277,-22.0499992370605,-22.1772289276123,0,-3.00000010611257e-06,-11.5575477489636,-16,-16.7020352621229,-3.67394031065145e-22,-16.7020352621229,-127.386655242976,11.9280369525018,0
3.8024275302887,-17.1599998474121,-30.3573226928711,-134,-118.152793884277,-22.2899990081787,-22.1772289276123,0,-3.00000010611257e-06,-11.9017621614722,-16,-16.6067498885542,-3.67394031065145e-22,-16.6067498885542,-127.536201477051,11.9299993515015,0
3.83537364006042,-15.2699995040894,-30.3573226928711,-134,-118.152793884277,-22.4599990844727,-22.1772289276123,0,-3.00000010611257e-06,-12.100750506602,-16,-16.5587540232828,-3.67394031065145e-22,-16.5587540232828,-127.536201477051,12.7246304924611,0
3.89892554283142,-15.2599992752075,-30.3573226928711,-134,-118.152793884277,-22.7299995422363,-22.1772289276123,0,-3.00000010611257e-06,-12.4111263010106,-16,-16.4935900761701,-3.67394031065145e-22,-16.4935900761701,-127.536201477051,12.7299995422363,0
3.96662092208862,-13.2599992752075,-30.3573226928711,-134,-118.152793884277,-23.019998550415,-22.1772289276123,0,-3.00000010611257e-06,-12.7418735579884,-16,-16.4388709957377,-3.67394031065145e-22,-16.4388709957377,-155.265872183884,13.5276261977412,0
4.03071689605713,-13.2599992752075,-30.3573226928711,-134,-118.152793884277,-23.2999992370605,-22.1772289276123,0,-3.00000010611257e-06,-13.0130401825002,-16,-16.3920444204099,-3.67394031065145e-22,-16.3920444204099,-155.348388671875,13.5299997329712,0
4.06068682670593,-13.2599992752075,-21.0643062591553,-134,-123.887649536133,-23.2999992370605,-22.5919342041016,0,-3.00000010611257e-06,-13.0176086425781,-16,-16.3912296295166,-3.67394031065145e-22,-16.3912296295166,-155.348388671875,14.2005948752661,0
4.10630226135254,-11.4699993133545,-21.0643062591553,-134,-123.887649536133,-23.5799999237061,-22.5919342041016,0,-3.00000010611257e-06,-13.3719843452375,-16,-16.3179610743038,-3.67394031065145e-22,-16.3179610743038,-155.348388671875,14.3199996948242,0
4.16917777061462,-9.63000011444092,-21.0643062591553,-134,-123.887649536133,-23.769998550415,-22.5919342041016,0,-3.00000010611257e-06,-13.6244941864106,-16,-16.2644517921569,-3.67394031065145e-22,-16.2644517921569,-176.444260674988,15.0906191114939,0
4.19530582427979,-9.63000011444092,-21.0643062591553,-134,-123.887649536133,-23.8599987030029,-22.5919342041016,0,-3.00000010611257e-06,-13.7916732667279,-16,-16.2202276172586,-3.67394031065145e-22,-16.2202276172586,-177.248565673828,15.1199998855591,0
4.26183915138245,-7.98999977111816,-21.0643062591553,-134,-123.887649536133,-23.2399997711182,-22.5919342041016,0,-3.00000010611257e-06,-14.0414591940319,-16,-16.1544220319694,-3.67394031065145e-22,-16.1544220319694,-177.248565673828,15.9118727365922,0
4.32190275192261,-7.98999977111816,-21.0643062591553,-134,-123.887649536133,-23.25,-22.5919342041016,0,-3.00000010611257e-06,-14.2785778824749,-16,-16.1017908018886,-3.67394031065145e-22,-16.1017908018886,-177.248565673828,15.9200000762939,0
4.43341588973999,-6.25,-21.0643062591553,-134,-123.887649536133,-22.6000003814697,-22.5919342041016,0,-3.00000010611257e-06,-14.6046071677256,-16,-16.0166168279022,-3.67394031065145e-22,-16.0166168279022,-223.325362344748,16.709335907844,0
4.46185040473938,-4.94999980926514,-21.0643062591553,-134,-123.887649536133,-21.9099998474121,-22.5919342041016,0,-3.00000010611257e-06,-14.6994551654063,-16,-15.9926103373512,-3.67394031065145e-22,-15.9926103373512,-223.364074707031,17.4888677817411,0
4.51562094688416,-4.94999980926514,-12.6735992431641,-134,-130.600402832031,-21.9200000762939,-21.9868907928467,0,-3.00000010611257e-06,-14.8847230494718,-16,-15.9260868263399,-3.67394031065145e-22,-15.9260868263399,-223.364074707031,17.5,0
4.57413578033447,-3.68999981880188,-12.6735992431641,-134,-130.600402832031,-21.1299991607666,-21.9868907928467,0,-3.00000010611257e-06,-15.0583425439985,-16,-15.8575824755223,-3.67394031065145e-22,-15.8575824755223,-245.521610297853,18.3086514052204,0
4.63488340377808,-2.37999987602234,-12.6735992431641,-134,-130.600402832031,-20.3899993896484,-21.9868907928467,0,-3.00000010611257e-06,-15.2312558203592,-16,-15.8116107413738,-3.67394031065145e-22,-15.8116107413738,-245.558547973633,19.1180580868015,0
4.69282913208008,-2.37999987602234,-12.6735992431641,-134,-130.600402832031,-20.3899993896484,-21.9868907928467,0,-3.00000010611257e-06,-15.397059594204,-16,-15.7761884009698,-3.67394031065145e-22,-15.7761884009698,-245.558547973633,19.1199989318848,0
4.75915956497192,-1.14999997615814,-12.6735992431641,-134,-130.600402832031,-19.6800003051758,-21.9868907928467,0,-3.00000010611257e-06,-15.5878368553733,-16,-15.742538784605,-3.67394031065145e-22,-15.742538784605,-275.221740366719,19.9386275031708,0
4.8253960609436,-1.14999997615814,-12.6735992431641,-134,-130.600402832031,-19.689998626709,-21.9868907928467,0,-3.00000010611257e-06,-15.7416322780669,-16,-15.7102576511392,-3.67394031065145e-22,-15.7102576511392,-275.271423339844,19.939998626709,0
4.85636115074158,-0.0899999961256981,-12.6735992431641,-134,-130.600402832031,-18.9699993133545,-21.9868907928467,0,-3.00000010611257e-06,-15.8347767014492,-16,-15.6904098370567,-3.67394031065145e-22,-15.6904098370567,-275.271423339844,20.6880303518767,0
4.93788480758667,3.79999995231628,-7.33576154708862,-133,-132.33464050293,-18.2799987792969,-21.1944484710693,0,-3.00000010611257e-06,-16.0458090025095,-16,-15.6684677850255,-3.67394031065145e-22,-15.6684677850255,-292.595173967513,21.5494497700514,0
4.95337343215942,3.80999994277954,-7.33576154708862,-133,-132.33464050293,-18.2799987792969,-21.1944484710693,0,-3.00000010611257e-06,-16.0889923554073,-16,-15.6672281471413,-3.67394031065145e-22,-15.6672281471413,-292.60693359375,21.5499992370605,0
5.03407573699951,3.80999994277954,-7.33576154708862,-133,-132.33464050293,-18.2799987792969,-21.1944484710693,0,-3.00000010611257e-06,-16.2101602797215,-16,-15.6622992309147,-3.67394031065145e-22,-15.6622992309147,-292.60693359375,21.5499992370605,0
5.0717191696167,8.55000019073486,-7.33576154708862,-131,-132.33464050293,-17.6299991607666,-21.1944484710693,0,-3.00000010611257e-06,-16.2843335470232,-16,-15.6579679979951,-3.67394031065145e-22,-15.6579679979951,-292.60693359375,22.3288939448334,0
5.13564372062683,12.9899997711182,-7.33576154708862,-129,-132.33464050293,-16.9499988555908,-21.1944484710693,0,-3.00000010611257e-06,-16.4241021291947,-16,-15.6629302582723,-3.67394031065145e-22,-15.6629302582723,-321.028350119896,23.101378573519,0
5.23353219032288,13.0499992370605,-7.33576154708862,-129,-132.33464050293,-16.9499988555908,-21.1944484710693,0,-3.00000010611257e-06,-16.5268621258657,-16,-15.7229365280473,-3.67394031065145e-22,-15.7229365280473,-321.714416503906,23.1199989318848,0
5.28447103500366,16.8599987030029,0.170044660568237,-127,-132.796585083008,-16.3999996185303,-18.908031463623,0,-3.00000010611257e-06,-16.6132409321949,-16,-15.7845442059362,-3.67394031065145e-22,-15.7845442059362,-321.714416503906,23.8760057571134,0
5.33609390258789,16.8799991607666,0.170044660568237,-127,-132.796585083008,-16.3999996185303,-18.908031463623,0,-3.00000010611257e-06,-16.6539213530247,-16,-15.8430995323453,-3.67394031065145e-22,-15.8430995323453,-321.714416503906,23.8799991607666,0
5.35814905166626,20.4300003051758,0.170044660568237,-125,-132.796585083008,-15.9899997711182,-18.908031463623,0,-3.00000010611257e-06,-16.6786925989464,-16,-15.9196640799164,-3.67394031065145e-22,-15.9196640799164,-344.159105047557,24.6131639537298,0
5.43959546089172,20.4799995422363,0.170044660568237,-123,-132.796585083008,-15.9799995422363,-18.908031463623,0,0.00477423500523341,-16.7045044847192,-15.9999990520336,-16.0094545720343,5.84675147532074e-19,-16.0094545720343,-344.368347167969,25.3189023767073,0
5.46103501319885,23.3400001525879,0.170044660568237,-123,-132.796585083008,-15.6700000762939,-18.908031463623,0,0.0048030000180006,-16.7047837243829,-15.9999990463257,-16.0750624002897,5.88197845527589e-19,-16.0750624002897,-344.368347167969,25.3199996948242,0
5.51284503936768,23.4300003051758,0.170044660568237,-123,-132.796585083008,-15.6599998474121,-18.908031463623,0,0.0048030000180006,-16.7044958875077,-15.9999990463257,-16.18226825337,5.88197845527589e-19,-16.18226825337,-344.368347167969,25.3199996948242,0
5.55919027328491,25.8999996185303,0.170044660568237,-121,-132.796585083008,-15.4099998474121,-18.908031463623,0,0.0048030000180006,-16.6765848181196,-15.9999990463257,-16.2687066395388,5.88197845527589e-19,-16.2687066395388,-372.393086002758,25.9542619061521,0
5.62019753456116,25.9799995422363,10.1880331039429,-121,-134.416885375977,-15.3999996185303,-15.9701671600342,0,0.0048030000180006,-16.6291117106605,-15.9999990463257,-16.3978359512819,5.88197845527589e-19,-16.3978359512819,-373.088439941406,25.9699993133545,0
5.68640565872192,27.8799991607666,10.1880331039429,-120,-134.416885375977,-15.2399997711182,-15.9701671600342,0,0.0891971915580153,-16.5759672510299,-15.9997428663822,-16.5416299915371,1.09235060745343e-17,-16.5416299915371,-373.088439941406,26.5988298844704,0
5.70955848693848,27.9200000762939,10.1880331039429,-120,-134.416885375977,-15.2299995422363,-15.9701671600342,0,0.0924569964408875,-16.5377801727523,-15.9997329711914,-16.6220430266175,1.13227170583249e-17,-16.6220430266175,-373.088439941406,26.5999984741211,0
5.81349515914917,29.8999996185303,10.1880331039429,-118,-134.416885375977,-15.1799993515015,-15.9701671600342,0,0.0924569964408875,-16.3828643032798,-15.9997329711914,-16.8851867209212,1.13227170583249e-17,-16.8851867209212,-402.6451553355,27.1887078315782,0
5.87780022621155,31.1999988555908,10.1880331039429,-116,-134.416885375977,-15.1799993515015,-15.9701671600342,0,0.0924569964408875,-16.2753967250961,-15.9997329711914,-17.0332330626762,1.13227170583249e-17,-17.0332330626762,-402.7099609375,27.7213617298425,0
5.92204833030701,31.1999988555908,10.1880331039429,-115,-134.416885375977,-15.1700000762939,-15.9701671600342,0,0.0924569964408875,-16.1944149693492,-15.9997329711914,-17.1264877282811,1.13227170583249e-17,-17.1264877282811,-421.267998659355,28.216257577493,0
5.96092128753662,32.2799987792969,10.1880331039429,-115,-134.416885375977,-15.1499996185303,-15.9701671600342,0,0.215786429946395,-16.1009604006496,-15.9983643613949,-17.2289502855928,2.6426215375508e-17,-17.2289502855928,-422.193145751953,28.2399997711182,0
6.03219604492188,32.25,20.0566539764404,-115,-134.387145996094,-15.1300001144409,-14.2241764068604,0,0.262614995241165,-15.989011005103,-15.9978446960449,-17.3399490799971,3.21610601487475e-17,-17.3399490799971,-422.193145751953,28.2399997711182,0
6.0764901638031,33.6499977111816,20.0566539764404,-113,-134.387145996094,-15.0799999237061,-14.2241764068604,0,0.262614995241165,-15.9061004799977,-15.9978446960449,-17.417788632352,3.21610601487475e-17,-17.417788632352,-422.193145751953,28.7357568632976,0
6.11977124214172,33.6399993896484,20.0566539764404,-112,-134.387145996094,-15.0599994659424,-14.2241764068604,0,0.262614995241165,-15.7771736599714,-15.9978446960449,-17.5300648901289,3.21610601487475e-17,-17.5300648901289,-440.076846640511,29.2196261876692,0
6.20045399665833,34.4899978637695,20.0566539764404,-112,-134.387145996094,-14.8800001144409,-14.2241764068604,0,0.761229042398171,-15.5541181260757,-15.9817156062963,-17.7345130372098,9.32236685582326e-17,-17.7345130372098,-440.090759277344,29.2199993133545,0
6.22736668586731,34.5,20.0566539764404,-112,-134.387145996094,-14.8699998855591,-14.2241764068604,0,0.771854996681213,-15.500895211805,-15.9813718795776,-17.7822224727121,9.45249726210887e-17,-17.7822224727121,-440.090759277344,29.2199993133545,0
6.32237768173218,36.5799980163574,25.1933078765869,-109,-131.875335693359,-14.6799993515015,-14.3051204681396,0,0.771854996681213,-15.1909738468512,-15.9813718795776,-18.0462681358729,9.45249726210887e-17,-18.0462681358729,-440.090759277344,29.7092377069091,0
6.39594507217407,36.9799995422363,25.1933078765869,-108,-131.875335693359,-14.3899993896484,-14.3051204681396,0,0.771854996681213,-14.8803147769141,-15.9813718795776,-18.2965411437243,9.45249726210887e-17,-18.2965411437243,-435.774047555029,30.1940422897891,0
6.43697476387024,36.9799995422363,25.1933078765869,-107,-131.875335693359,-14.3800001144409,-14.3051204681396,0,1.25280064848935,-14.7256771948665,-15.9499322310238,-18.4105447357902,1.53423834738493e-16,-18.4105447357902,-435.631744384766,30.7180791766585,0
6.47975039482117,37.0499992370605,25.1933078765869,-107,-131.875335693359,-14.1300001144409,-14.3051204681396,0,1.31522798538208,-14.5756239450128,-15.9458513259888,-18.5140848436843,1.6106897945324e-16,-18.5140848436843,-435.631744384766,30.7199993133545,0
6.51515984535217,37.0400009155273,25.1933078765869,-107,-131.875335693359,-14.1099996566772,-14.3051204681396,0,1.31522798538208,-14.426809768021,-15.9458513259888,-18.6133614608563,1.6106897945324e-16,-18.6133614608563,-435.631744384766,30.7199993133545,0
6.55447840690613,38.7399978637695,25.1933078765869,-104,-131.875335693359,-13.7999992370605,-14.3051204681396,0,1.31522798538208,-14.2657234835397,-15.9458513259888,-18.7315595911854,1.6106897945324e-16,-18.7315595911854,-443.242351017093,31.2171831145096,0
6.63788294792175,38.7700004577637,25.1933078765869,-103,-131.875335693359,-13.7799997329712,-14.3051204681396,0,1.31522798538208,-13.9967198138278,-15.9458513259888,-18.9160373000293,1.6106897945324e-16,-18.9160373000293,-443.438537597656,31.7350109469101,0
6.66397452354431,38.75,34.1939468383789,-103,-127.718032836914,-13.460000038147,-13.8108310699463,0,2.34523456920387,-13.7878398151372,-15.8085254382662,-19.0708598032087,2.87208410262937e-16,-19.0708598032087,-443.438537597656,31.75,0
6.73909282684326,42.6800003051758,34.1939468383789,-97,-127.718032836914,-13.2599992752075,-13.8108310699463,0,2.90842795372009,-13.3597598541632,-15.733437538147,-19.4104692271785,3.56179710130818e-16,-19.4104692271785,-449.196522828918,32.2895452648097,0
6.79780220985413,42.7199974060059,34.1939468383789,-97,-127.718032836914,-13.2399997711182,-13.8108310699463,0,2.90842795372009,-13.0310743341328,-15.733437538147,-19.6620740192488,3.56179710130818e-16,-19.6620740192488,-449.201385498047,32.2900009155273,0
6.83559012413025,42.4599990844727,34.1939468383789,-96,-127.718032836914,-13.1700000762939,-13.8108310699463,0,2.90842795372009,-12.8001157828127,-15.733437538147,-19.838563978393,3.56179710130818e-16,-19.838563978393,-449.201385498047,32.7995160400657,0
6.87676334381104,42.4699974060059,34.1939468383789,-96,-127.718032836914,-13.1700000762939,-13.8108310699463,0,2.90842795372009,-12.5440699088335,-15.733437538147,-20.0213744044346,3.56179710130818e-16,-20.0213744044346,-449.201385498047,32.7999992370605,0
6.91566395759583,42.4599990844727,34.1939468383789,-96,-127.718032836914,-13.1700000762939,-13.8108310699463,0,3.82599974548759,-12.3164580349469,-15.5331850160513,-20.1870452732674,4.68549865453657e-16,-20.1870452732674,-449.201385498047,32.7999992370605,0
6.94762468338013,43.6199989318848,34.1939468383789,-92,-127.718032836914,-13.1599998474121,-13.8108310699463,0,3.91119790077209,-12.1556715644593,-15.514591217041,-20.2787466303915,4.7898363208471e-16,-20.2787466303915,-419.767487494348,33.2096371379288,0
7.03160738945007,43.5999984741211,34.1939468383789,-92,-127.718032836914,-13.1499996185303,-13.8108310699463,0,3.91119790077209,-11.829245008402,-15.514591217041,-20.4555945799741,4.7898363208471e-16,-20.4555945799741,-413.993072509766,33.2900009155273,0
7.05204939842224,43.5900001525879,36.6730270385742,-91,-123.220138549805,-12.9499998092651,-13.3882694244385,0,3.91119790077209,-11.6891735987234,-15.514591217041,-20.5307153620964,4.7898363208471e-16,-20.5307153620964,-413.993072509766,33.7627459850741,0
7.11455774307251,43.6100006103516,36.6730270385742,-91,-123.220138549805,-12.9499998092651,-13.3882694244385,0,3.91119790077209,-11.3292969246558,-15.514591217041,-20.7226514239342,4.7898363208471e-16,-20.7226514239342,-413.993072509766,33.7700004577637,0
7.15437364578247,43.6199989318848,36.6730270385742,-90,-123.220138549805,-12.0500001907349,-13.3882694244385,0,3.91119790077209,-11.0874646916544,-15.514591217041,-20.8543497249479,4.7898363208471e-16,-20.8543497249479,-449.145947175005,34.2379651634263,0
7.25553679466248,43.689998626709,36.6730270385742,-82,-123.220138549805,-9.96000003814697,-13.3882694244385,0,5.94937635581162,-10.4375075206242,-14.8456357053231,-21.2123084550688,7.28588486235498e-16,-21.2123084550688,-450.049987792969,34.7283856294115,0
7.31063055992126,43.7199974060059,36.6730270385742,-82,-123.220138549805,-9.94999980926514,-13.3882694244385,0,6.043288230896,-10.06367027167,-14.8148126602173,-21.3991354324887,7.4008937313061e-16,-21.3991354324887,-450.049987792969,34.7299995422363,0
7.35475587844849,43.7399978637695,36.6730270385742,-81,-123.220138549805,-7.94999980926514,-13.3882694244385,0,6.043288230896,-9.75325852565627,-14.8148126602173,-21.5534202546194,7.4008937313061e-16,-21.5534202546194,-435.305667172864,35.1777344824047,0
7.43316030502319,43.7599983215332,36.6730270385742,-81,-123.220138549805,-7.94000005722046,-13.3882694244385,0,6.043288230896,-9.30694711048636,-14.8148126602173,-21.7612767498474,7.4008937313061e-16,-21.7612767498474,-434.572418212891,35.2000007629395,0
7.50964283943176,43.8099975585938,36.6730270385742,-80,-123.220138549805,-5.94999980926514,-13.3882694244385,0,7.54544918603433,-8.74041207022262,-14.1068633318391,-21.9979387794374,9.24051065131641e-16,-21.9979387794374,-434.572418212891,35.6689425140347,0
7.54681611061096,43.8199996948242,40.6107063293457,-80,-114.851432800293,-5.94999980926514,-12.1978807449341,0,7.57955074310303,-8.6457180922519,-14.0907917022705,-22.0411314895582,9.28227302116611e-16,-22.0411314895582,-434.572418212891,35.6699981689453,0
7.57808327674866,43.8600006103516,40.6107063293457,-74,-114.851432800293,-4.09999990463257,-12.1978807449341,0,7.57955074310303,-8.2618655978323,-14.0907917022705,-22.211547755488,9.28227302116611e-16,-22.211547755488,-451.735251304793,36.109510383487,0
7.62758326530457,43.9199981689453,40.6107063293457,-74,-114.851432800293,-4.08999967575073,-12.1978807449341,0,7.57955074310303,-7.66231045118606,-14.0907917022705,-22.4664802543999,9.28227302116611e-16,-22.4664802543999,-451.75439453125,36.1100006103516,0
7.66666388511658,43.9599990844727,40.6107063293457,-72,-114.851432800293,-2.35999989509583,-12.1978807449341,0,7.57955074310303,-7.44281546582525,-14.0907917022705,-22.5589639548044,9.28227302116611e-16,-22.5589639548044,-451.75439453125,36.5379258993387,0
7.72554922103882,44.0299987792969,40.6107063293457,-63,-114.851432800293,-2.35999989509583,-12.1978807449341,0,9.92289391900909,-6.92826135190856,-12.5487716058248,-22.7498891997886,1.21520408278764e-15,-22.7498891997886,-462.794732476846,36.9472515285133,0
7.80296349525452,44.1399993896484,40.6107063293457,-63,-114.851432800293,-0.719999969005585,-12.1978807449341,0,9.94209766387939,-6.32661357445321,-12.5361347198486,-22.9838802432671,1.21755586332767e-15,-22.9838802432671,-462.869262695313,36.9500007629395,0
7.83964133262634,44.189998626709,40.6107063293457,-62,-114.851432800293,0.769999980926514,-12.1978807449341,0,9.94209766387939,-5.86475951905846,-12.5361347198486,-23.1625252991877,1.21755586332767e-15,-23.1625252991877,-463.840724478262,37.3385358240232,0
7.89397311210632,44.2599983215332,40.6107063293457,-62,-114.851432800293,0.759999990463257,-12.1978807449341,0,9.94209766387939,-5.18546918764352,-12.5361347198486,-23.4028283221919,1.21755586332767e-15,-23.4028283221919,-463.869384765625,37.3499984741211,0
7.96496844291687,44.3199996948242,40.6107063293457,-57,-114.851432800293,1.9799998998642,-12.1978807449341,0,10.766346172208,-4.5610188362298,-11.8335218255605,-23.5920929412096,1.31849722864401e-15,-23.5920929412096,-485.01586743822,37.6796669618796,0
7.99585938453674,44.3299980163574,41.7197265625,-57,-105.066749572754,1.99000000953674,-8.47754669189453,0,10.8039693832397,-4.36419105929893,-11.8014507293701,-23.6436757708473,1.32310474476415e-15,-23.6436757708473,-485.678588867188,37.689998626709,0
8.03873562812805,44.3499984741211,41.7197265625,-56,-105.066749572754,2,-8.47754669189453,0,10.8039693832397,-4.03470846657116,-11.8014507293701,-23.7307773715734,1.32310474476415e-15,-23.7307773715734,-484.687003142632,37.997354044085,0
8.05775570869446,44.3699989318848,41.7197265625,-56,-105.066749572754,3.24000000953674,-8.47754669189453,0,10.8039693832397,-3.66794107864981,-11.8014507293701,-23.8158596648909,1.32310474476415e-15,-23.8158596648909,-484.678466796875,38,0
8.12399911880493,44.3899993896484,41.7197265625,-54,-105.066749572754,3.23000001907349,-8.47754669189453,0,12.3135038763674,-3.10178219719834,-10.2090773604121,-23.9410062513137,1.5079692171427e-15,-23.9410062513137,-526.96213355356,38.2570718723093,0
8.17959761619568,44.3999977111816,41.7197265625,-54,-105.066749572754,4.32999992370605,-8.47754669189453,0,12.3612794876099,-2.56302941118239,-10.1586799621582,-24.0514242537652,1.51382003618996e-15,-24.0514242537652,-527.443481445313,38.2599983215332,0
8.25786638259888,44.4300003051758,41.7197265625,-47,-105.066749572754,5.36999988555908,-8.47754669189453,0,12.3612794876099,-1.70130477441663,-10.1586799621582,-24.2070278410012,1.51382003618996e-15,-24.2070278410012,-527.443481445313,38.5098299333963,0
8.3432891368866,44.4799995422363,41.4686584472656,-45,-95.783203125,6.25999975204468,-7.17738389968872,0,12.3612794876099,-0.845238860604486,-10.1586799621582,-24.3349434468323,1.51382003618996e-15,-24.3349434468323,-547.901579761252,38.7127282570129,0
8.37085390090942,44.5099983215332,41.4686584472656,-45,-95.783203125,6.25999975204468,-7.17738389968872,0,12.3612794876099,-0.547039328499952,-10.1586799621582,-24.3695764883458,1.51382003618996e-15,-24.3695764883458,-548.635131835938,38.7199974060059,0
8.44522666931152,44.5499992370605,41.4686584472656,-36,-95.783203125,7.03999996185303,-7.17738389968872,0,13.834767237451,0.240230255049397,-8.00213912113373,-24.4480358878273,1.69427041100068e-15,-24.4480358878273,-548.635131835938,38.9095955176057,0
8.45607113838196,44.5599975585938,41.4686584472656,-36,-95.783203125,7.03999996185303,-7.17738389968872,0,13.9568004608154,0.46500585743008,-7.82353591918945,-24.4658124369089,1.70921518464936e-15,-24.4658124369089,-548.635131835938,38.9099998474121,0
8.51031112670898,44.6100006103516,41.4686584472656,-35,-95.783203125,7.04999971389771,-7.17738389968872,0,13.9568004608154,1.14863071493455,-7.82353591918945,-24.4925542997428,1.70921518464936e-15,-24.4925542997428,-584.283382925665,39.0396689940103,0
8.58167791366577,44.6499977111816,41.4686584472656,-35,-95.783203125,7.67999982833862,-7.17738389968872,0,13.9568004608154,1.90667893697939,-7.82353591918945,-24.5090032746003,1.70921518464936e-15,-24.5090032746003,-584.374633789063,39.0400009155273,0
8.62769556045532,44.6599998474121,41.4686584472656,-35,-95.783203125,7.69000005722046,-7.17738389968872,0,14.4211969718838,2.31648675635557,-6.92165339697804,-24.5118788775082,1.76608728900969e-15,-24.5118788775082,-584.374633789063,39.0400009155273,0
8.68684196472168,44.6800003051758,41.4686584472656,-30,-95.783203125,8.17999935150146,-7.17738389968872,0,14.4752569198608,2.98349596762421,-6.81666612625122,-24.4727583995595,1.77270771558436e-15,-24.4727583995595,-584.374633789063,39.1498113895259,0
8.71724581718445,44.7000007629395,42.7138595581055,-30,-86.0040664672852,8.17999935150146,-3.96990156173706,0,14.4752569198608,3.41500968465651,-6.81666612625122,-24.4338085138605,1.77270771558436e-15,-24.4338085138605,-584.374633789063,39.1499977111816,0
8.76699805259705,44.7199974060059,42.7138595581055,-29,-86.0040664672852,8.55999946594238,-3.96990156173706,0,14.4752569198608,3.85758339245111,-6.81666612625122,-24.3929712219216,1.77270771558436e-15,-24.3929712219216,-614.06576204647,39.188247440767,0
8.84090042114258,44.7399978637695,42.7138595581055,-27,-86.0040664672852,9,-3.96990156173706,0,14.4752569198608,4.61290451533719,-6.81666612625122,-24.2949804496291,1.77270771558436e-15,-24.2949804496291,-615.425109863281,39.2199366098384,0
8.92999672889709,44.7599983215332,42.7138595581055,-20,-86.0040664672852,9.01999950408936,-3.96990156173706,0,15.2603655900047,5.57872168654072,-4.79058443044505,-24.1052746666289,1.86885581942815e-15,-24.1052746666289,-661.744656255236,39.2100065825577,0
8.96098780632019,44.7599983215332,42.7138595581055,-20,-86.0040664672852,9.34999942779541,-3.96990156173706,0,15.2888927459717,5.84864746262321,-4.71696615219116,-24.0484127530687,1.87234938924669e-15,-24.0484127530687,-661.779418945313,39.2099990844727,0
8.9985716342926,44.7700004577637,42.7138595581055,-20,-86.0040664672852,9.34999942779541,-3.96990156173706,0,15.2888927459717,6.16705720611869,-4.71696615219116,-23.9808455725858,1.87234938924669e-15,-23.9808455725858,-661.779418945313,39.2099990844727,0
9.04768848419189,44.7700004577637,42.7138595581055,-19,-86.0040664672852,9.59000015258789,-3.96990156173706,0,15.2888927459717,6.63538327191598,-4.71696615219116,-23.8601209192736,1.87234938924669e-15,-23.8601209192736,-661.779418945313,39.2001626042888,0
9.10718107223511,44.7700004577637,42.7138595581055,-19,-86.0040664672852,9.59000015258789,-3.96990156173706,0,15.6588071402741,7.23655962087574,-3.26805329510029,-23.6920250400369,1.91765077589592e-15,-23.6920250400369,-661.779418945313,39.2000007629395,0
9.12621688842773,44.7700004577637,44.2276382446289,-14,-74.7577362060547,9.59000015258789,-0.893044710159302,0,15.6789226531982,7.3962170011946,-3.18926310539246,-23.6332702936315,1.92011421241707e-15,-23.6332702936315,-676.228186916521,39.1469950684501,0
9.17308688163757,44.7700004577637,44.2276382446289,-14,-74.7577362060547,9.72999954223633,-0.893044710159302,0,15.6789226531982,7.90966862400395,-3.18926310539246,-23.451874621918,1.92011421241707e-15,-23.451874621918,-678.135131835938,39.1399993896484,0
9.21805596351624,44.7700004577637,44.2276382446289,-14,-74.7577362060547,9.72999954223633,-0.893044710159302,0,15.6789226531982,8.29230118583529,-3.18926310539246,-23.3150877693707,1.92011421241707e-15,-23.3150877693707,-678.135131835938,39.1399993896484,0
9.25748085975647,44.7700004577637,44.2276382446289,-12,-74.7577362060547,9.94999980926514,-0.893044710159302,0,15.6789226531982,8.64921169308765,-3.18926310539246,-23.1700379187129,1.92011421241707e-15,-23.1700379187129,-678.135131835938,39.0729123652032,0
9.32756567001343,44.7700004577637,44.2276382446289,-8,-74.7577362060547,9.96999931335449,-0.893044710159302,0,15.8327435193031,9.16803932568041,-2.30254302062879,-22.9311395560331,1.93895197943978e-15,-22.9311395560331,-716.26417408914,38.9801661750276,0
9.37513566017151,44.7700004577637,44.2276382446289,-8,-74.7577362060547,10.1700000762939,-0.893044710159302,0,15.8370199203491,9.70627805923955,-2.27789115905762,-22.6680600923701,1.93947569152541e-15,-22.6680600923701,-716.334899902344,38.9799995422363,0
9.4320969581604,44.7700004577637,44.2276382446289,-8,-74.7577362060547,10.1899995803833,-0.893044710159302,0,15.8370199203491,10.2641879193291,-2.27789115905762,-22.3736238138363,1.93947569152541e-15,-22.3736238138363,-716.334899902344,38.9799995422363,0
9.45936989784241,44.7599983215332,44.2276382446289,-7,-74.7577362060547,10.289999961853,-0.893044710159302,0,15.8370199203491,10.5199557976781,-2.27789115905762,-22.2220250498982,1.93947569152541e-15,-22.2220250498982,-717.20092799649,38.9107241654267,0
9.51910328865051,44.7599983215332,44.2276382446289,-6,-74.7577362060547,10.3000001907349,-0.893044710159302,0,15.8370199203491,11.0910736192816,-2.27789115905762,-21.8716176497679,1.93947569152541e-15,-21.8716176497679,-741.908922514642,38.7801883981539,0
9.5671398639679,44.7599983215332,46.9031066894531,-6,-62.0802040100098,10.2600002288818,1.13083910942078,0,15.9113092563472,11.5159030538377,-1.52945728633831,-21.6003555478208,1.94857345370101e-15,-21.6003555478208,-741.947814941406,38.7799987792969,0
9.62313652038574,44.7599983215332,46.9031066894531,-6,-62.0802040100098,10.2699995040894,1.13083910942078,0,15.975790977478,12.0832410670272,-0.87983101606369,-21.2365232171064,1.95647013706264e-15,-21.2365232171064,-741.947814941406,38.7799987792969,0
9.66096496582031,44.7599983215332,46.9031066894531,-1,-62.0802040100098,10.2600002288818,1.13083910942078,0,15.975790977478,12.3655946241842,-0.87983101606369,-21.0541376212639,1.95647013706264e-15,-21.0541376212639,-741.947814941406,38.6501172512566,0
9.72645092010498,44.7599983215332,46.9031066894531,0,-62.0802040100098,10.2799997329712,1.13083910942078,0,15.975790977478,12.7976052935218,-0.87983101606369,-20.7359874656196,1.95647013706264e-15,-20.7359874656196,-764.069012363724,38.5003341932606,0
9.78055691719055,44.7599983215332,46.9031066894531,0,-62.0802040100098,10.3299999237061,1.13083910942078,0,15.975790977478,13.2360637560908,-0.87983101606369,-20.4042944414282,1.95647013706264e-15,-20.4042944414282,-764.118408203125,38.5,0
9.84859132766724,44.75,46.9031066894531,1,-62.0802040100098,10.3499994277954,1.13083910942078,0,15.9845788835258,13.7909193103395,-0.694452917435714,-19.965384277482,1.95754641569089e-15,-19.965384277482,-764.118408203125,38.3600788519912,0
9.88157415390015,44.7399978637695,49.3920707702637,1,-53.7348136901855,10.3599996566772,1.62411403656006,0,15.987377166748,14.0624410688387,-0.635424017906189,-19.7396388970252,1.95788912900753e-15,-19.7396388970252,-764.118408203125,38.3600006103516,0
9.94695973396301,44.7199974060059,49.3920707702637,3,-53.7348136901855,10.3000001907349,1.62411403656006,0,15.987377166748,14.6080932032694,-0.635424017906189,-19.2569192967976,1.95788912900753e-15,-19.2569192967976,-759.565205291147,38.2177220650865,0
9.97047829627991,44.7099990844727,49.3920707702637,3,-53.7348136901855,10.3000001907349,1.62411403656006,0,15.987377166748,14.809261084297,-0.635424017906189,-19.0717594075463,1.95788912900753e-15,-19.0717594075463,-759.318054199219,38.2099990844727,0
10.0327851772308,44.7000007629395,49.3920707702637,3,-53.7348136901855,10.289999961853,1.62411403656006,0,15.987377166748,15.356277212402,-0.635424017906189,-18.5580168986262,1.95788912900753e-15,-18.5580168986262,-759.318054199219,38.2099990844727,0
10.041357755661,44.7000007629395,49.3920707702637,4,-53.7348136901855,10.289999961853,1.62411403656006,0,15.987377166748,15.3910980224609,-0.635424017906189,-18.5252895355225,1.95788912900753e-15,-18.5252895355225,-759.318054199219,38.0602492176258,0
10.1019644737244,44.689998626709,49.3920707702637,4,-53.7348136901855,10.0599994659424,1.62411403656006,0,15.9973075763241,16.0572937417023,-0.191254765614469,-17.7945004198816,1.95910519294394e-15,-17.7945004198816,-759.318054199219,38.0499992370605,0
10.1484971046448,44.6800003051758,49.3920707702637,7,-53.7348136901855,9.75,1.62411403656006,0,15.9998016357422,16.445488805187,-0.0797000005841255,-17.3607168543398,1.95941061193904e-15,-17.3607168543398,-774.194800465073,37.8694209650413,0
10.224668264389,44.6499977111816,48.6865158081055,7,-44.9024772644043,9.72999954223633,3.48570132255554,0,15.9998016357422,16.9803174594862,-0.0797000005841255,-16.7276405138249,1.95941061193904e-15,-16.7276405138249,-774.970886230469,37.8600006103516,0
10.2538149356842,44.6499977111816,48.6865158081055,8,-44.9024772644043,9.44999980926514,3.48570132255554,0,15.9998016357422,17.1287705103205,-0.0797000005841255,-16.5443212343446,1.95941061193904e-15,-16.5443212343446,-773.979486318209,37.6617319728788,0
10.2896263599396,44.629997253418,48.6865158081055,8,-44.9024772644043,9.4399995803833,3.48570132255554,0,15.9999086250174,17.4915841182695,-0.0486868382454806,-16.0547563233014,1.95942370495017e-15,-16.0547563233014,-773.970825195313,37.6599998474121,0
10.3598644733429,44.6100006103516,48.6865158081055,9,-44.9024772644043,9.01999950408936,3.48570132255554,0,15.9999694824219,17.9428685791654,-0.0310459993779659,-15.4233979335328,1.95943115248801e-15,-15.4233979335328,-753.800047465201,37.4312297081358,0
10.4820477962494,44.5900001525879,48.6865158081055,10,-44.9024772644043,8.63000011444092,3.48570132255554,0,15.9999694824219,18.6070328422176,-0.0310459993779659,-14.3386776348004,1.95943115248801e-15,-14.3386776348004,-754.691191435925,37.2001343821153,0
10.5254073143005,44.5900001525879,48.6865158081055,10,-44.9024772644043,8.63000011444092,3.48570132255554,0,15.9999694824219,18.8085264815728,-0.0310459993779659,-13.9809446828505,1.95943115248801e-15,-13.9809446828505,-754.691772460938,37.2000007629395,0
10.5509874820709,44.5799980163574,48.6865158081055,11,-44.9024772644043,8.15999984741211,3.48570132255554,0,15.9999694824219,18.9348907353184,-0.0310459993779659,-13.7792341627717,1.95943115248801e-15,-13.7792341627717,-761.670044010475,36.9209500414085,0
10.5765409469604,44.5699996948242,48.1509132385254,11,-34.9718589782715,8.15999984741211,4.89209890365601,0,15.9999977306838,19.106050398031,-0.00230305628044976,-13.441767417492,1.95943468069847e-15,-13.441767417492,-761.69384765625,36.9199981689453,0
10.6371967792511,44.5599975585938,48.1509132385254,13,-34.9718589782715,7.73000001907349,4.89209890365601,0,16,19.3909774577602,6.00000021222513e-06,-12.8804811616297,1.95943496413627e-15,-12.8804811616297,-761.69384765625,36.6602237741081,0
10.6594550609589,44.5599975585938,48.1509132385254,13,-34.9718589782715,7.73000001907349,4.89209890365601,0,16,19.4842295019142,6.00000021222513e-06,-12.6354633549246,1.95943496413627e-15,-12.6354633549246,-761.69384765625,36.6599998474121,0
10.7524948120117,44.5599975585938,48.1509132385254,14,-34.9718589782715,7.14999961853027,4.89209890365601,0,16,19.9105357643144,6.00000021222513e-06,-11.6077219281715,1.95943496413627e-15,-11.6077219281715,-756.588726740291,36.3801037972889,0
10.8376371860504,44.5900001525879,48.1509132385254,15,-34.9718589782715,6.60999965667725,4.89209890365601,0,16,20.2257901093124,6.00000021222513e-06,-10.8038680612995,1.95943496413627e-15,-10.8038680612995,-756.586853027344,36.1011499059307,0
10.9221873283386,44.5999984741211,48.1509132385254,15,-34.9718589782715,6.61999988555908,4.89209890365601,0,16,20.4588939312711,6.00000021222513e-06,-10.0584264503157,1.95943496413627e-15,-10.0584264503157,-756.586853027344,36.0999984741211,0
10.9606189727783,44.5999984741211,48.1509132385254,15,-34.9718589782715,6.10999965667725,4.89209890365601,0,16,20.5701041798568,6.00000021222513e-06,-9.68555958811356,1.95943496413627e-15,-9.68555958811356,-759.485164575465,35.8107836251879,0
11.0394816398621,44.5900001525879,47.9944725036621,16,-22.5775127410889,5.61999988555908,4.66760015487671,0,16,20.8067167765646,6.00000021222513e-06,-8.85493551957595,1.95943496413627e-15,-8.85493551957595,-759.493041992188,35.5303948686492,0
11.0706276893616,44.5900001525879,47.9944725036621,16,-22.5775127410889,5.61999988555908,4.66760015487671,0,16,20.864512236775,6.00000021222513e-06,-8.63815887149979,1.95943496413627e-15,-8.63815887149979,-759.493041992188,35.5299987792969,0
11.1181948184967,44.5699996948242,47.9944725036621,16,-22.5775127410889,5.62999963760376,4.66760015487671,0,16,21.0089667345749,6.00000021222513e-06,-7.95518773233202,1.95943496413627e-15,-7.95518773233202,-759.493041992188,35.5299987792969,0
11.1394827365875,44.5599975585938,47.9944725036621,17,-22.5775127410889,5.02999973297119,4.66760015487671,0,16,21.0570697969663,6.00000021222513e-06,-7.74934520717743,1.95943496413627e-15,-7.74934520717743,-766.910373410291,35.2318455982699,0
11.1766698360443,44.5499992370605,47.9944725036621,17,-22.5775127410889,5.02999973297119,4.66760015487671,0,16,21.1279812509785,6.00000021222513e-06,-7.30827521746014,1.95943496413627e-15,-7.30827521746014,-766.956298828125,35.2299995422363,0
11.2225544452667,44.5399971008301,47.9944725036621,17,-22.5775127410889,5.02999973297119,4.66760015487671,0,16,21.2093050412159,6.00000021222513e-06,-6.87530897234863,1.95943496413627e-15,-6.87530897234863,-766.956298828125,35.2299995422363,0
11.2787508964539,44.5200004577637,47.9944725036621,18,-22.5775127410889,4.34999990463257,4.66760015487671,0,16,21.3003385398467,6.00000021222513e-06,-6.22387708069058,1.95943496413627e-15,-6.22387708069058,-766.956298828125,34.9306568610585,0
11.3265016078949,44.5099983215332,48.8755493164063,18,-14.5802631378174,4.36999988555908,5.74710464477539,0,16,21.3664920614595,6.00000021222513e-06,-5.6394198953531,1.95943496413627e-15,-5.6394198953531,-773.634102731616,34.6135548602065,0
11.388298034668,44.5099983215332,48.8755493164063,18,-14.5802631378174,3.74000000953674,5.74710464477539,0,16,21.4173467278813,6.00000021222513e-06,-5.07465894041418,1.95943496413627e-15,-5.07465894041418,-773.709106445313,34.6100006103516,0
11.459502696991,44.5099983215332,48.8755493164063,19,-14.5802631378174,3.14999985694885,5.74710464477539,0,16,21.4552588270299,6.00000021222513e-06,-4.43350648768731,1.95943496413627e-15,-4.43350648768731,-773.709106445313,34.3047199059914,0
11.5033345222473,44.5099983215332,48.8755493164063,19,-14.5802631378174,3.16999983787537,5.74710464477539,0,16,21.4701772282356,6.00000021222513e-06,-4.03678314378824,1.95943496413627e-15,-4.03678314378824,-773.709106445313,34.2999992370605,0
11.5273780822754,44.1399993896484,48.8755493164063,19,-14.5802631378174,2.57999992370605,5.74710464477539,0,16,21.4745217420235,6.00000021222513e-06,-3.70432253696109,1.95943496413627e-15,-3.70432253696109,-768.109212020871,33.993974836902,0
11.6092419624329,44.129997253418,48.8755493164063,19,-14.5802631378174,2.58999991416931,5.74710464477539,0,16,21.476131308989,6.00000021222513e-06,-2.86444417312628,1.95943496413627e-15,-2.86444417312628,-768.036437988281,33.9899978637695,0
11.6292300224304,44.129997253418,48.8755493164063,19,-14.5802631378174,2.58999991416931,5.74710464477539,0,16,21.4754486586356,6.00000021222513e-06,-2.70091860773377,1.95943496413627e-15,-2.70091860773377,-768.036437988281,33.9899978637695,0
11.6587769985199,41.6399993896484,48.8755493164063,20,-14.5802631378174,1.94999992847443,5.74710464477539,0,16,21.4807835408703,6.00000021222513e-06,-2.25058850438551,1.95943496413627e-15,-2.25058850438551,-768.036437988281,33.712719934341,0
11.7264177799225,41.629997253418,48.8755493164063,20,-14.5802631378174,1.95999991893768,5.74710464477539,0,16,21.4389641496882,6.00000021222513e-06,-1.56731458620438,1.95943496413627e-15,-1.56731458620438,-768.036437988281,33.689998626709,0
11.7830181121826,38.6699981689453,52.1284255981445,20,-3.34942865371704,1.25999999046326,6.10331106185913,0,16,21.38384188295,6.00000021222513e-06,-0.972979492746748,1.95943496413627e-15,-0.972979492746748,-767.831025167024,33.3834186328309,0
11.8495254516602,35.7599983215332,52.1284255981445,20,-3.34942865371704,0.610000014305115,6.10331106185913,0,16,21.333099395217,6.00000021222513e-06,-0.362899807866014,1.95943496413627e-15,-0.362899807866014,-767.828735351563,33.0801412671879,0
11.8689181804657,35.7700004577637,52.1284255981445,20,-3.34942865371704,0.599999964237213,6.10331106185913,0,16,21.2688287507039,6.00000021222513e-06,0.0398647768840431,1.95943496413627e-15,0.0398647768840431,-767.828735351563,33.0799980163574,0
11.9357097148895,32.2000007629395,52.1284255981445,20,-3.34942865371704,-0.0299999993294477,6.10331106185913,0,16,21.1853570361648,6.00000021222513e-06,0.701460423097593,1.95943496413627e-15,0.701460423097593,-760.851048245704,32.7808715821401,0
11.9932391643524,32.2000007629395,52.1284255981445,20,-3.34942865371704,-0.0399999991059303,6.10331106185913,0,16,21.0823635729565,6.00000021222513e-06,1.32733597370741,1.95943496413627e-15,1.32733597370741,-760.830688476563,32.7799987792969,0
12.0516765117645,32.2000007629395,52.1284255981445,20,-3.34942865371704,-0.0399999991059303,6.10331106185913,0,16,20.9418908059506,6.00000021222513e-06,2.06579598446988,1.95943496413627e-15,2.06579598446988,-760.830688476563,32.4814395151243,0
12.0619304180145,27.5599994659424,52.1284255981445,20,-3.34942865371704,-0.810000002384186,6.10331106185913,0,16,20.9062576124709,6.00000021222513e-06,2.22755773348962,1.95943496413627e-15,2.22755773348962,-760.830688476563,32.4799995422363,0
12.1249115467072,27.5699996948242,52.1284255981445,20,-3.34942865371704,-0.829999983310699,6.10331106185913,0,16,20.7349916979556,6.00000021222513e-06,2.96163513509335,1.95943496413627e-15,2.96163513509335,-758.640423062929,32.1875046994722,0
12.1507332324982,22.4099998474121,52.1284255981445,20,-3.34942865371704,-1.59999990463257,6.10331106185913,0,16,20.6737108308724,6.00000021222513e-06,3.21535606214527,1.95943496413627e-15,3.21535606214527,-758.584228515625,32.1800003051758,0
12.2465035915375,17.9200000762939,48.720142364502,20,8.94372653961182,-2.24000000953674,5.54591846466064,0,16,20.4667225997416,6.00000021222513e-06,3.92465339756037,1.95943496413627e-15,3.92465339756037,-758.584228515625,31.871409270593,0
12.2657351493835,17.9099998474121,48.720142364502,20,8.94372653961182,-2.25,5.54591846466064,0,16,20.4050498410859,6.00000021222513e-06,4.09632102972254,1.95943496413627e-15,4.09632102972254,-758.584228515625,31.8699989318848,0
12.3249483108521,13.0599994659424,48.720142364502,20,8.94372653961182,-3.00999999046326,5.54591846466064,0,16,20.1678330261167,6.00000021222513e-06,4.67061004394794,1.95943496413627e-15,4.67061004394794,-749.4668084542,31.5880410041509,0
12.4416151046753,8.31999969482422,48.720142364502,19,8.94372653961182,-3.8899998664856,5.54591846466064,0,16,19.7476377603198,6.00000021222513e-06,5.55150520665496,1.95943496413627e-15,5.55150520665496,-748.883422851563,31.2601780734716,0
12.4868319034576,8.31999969482422,48.720142364502,19,8.94372653961182,-3.93999981880188,5.54591846466064,0,16,19.5981092991864,6.00000021222513e-06,5.84079913775845,1.95943496413627e-15,5.84079913775845,-748.883422851563,31.2600002288818,0
12.5358090400696,8.31999969482422,48.720142364502,19,8.94372653961182,-3.99000000953674,5.54591846466064,0,16,19.477995927097,6.00000021222513e-06,6.03551006383807,1.95943496413627e-15,6.03551006383807,-748.883422851563,31.2600002288818,0
12.5693695545197,3.97000002861023,36.3697357177734,19,15.1454153060913,-4.81999969482422,5.16113090515137,0,16,19.3470953328868,6.00000021222513e-06,6.23961030522999,1.95943496413627e-15,6.23961030522999,-764.674244530829,30.9517623543662,0
12.6399517059326,0.209999993443489,36.3697357177734,19,15.1454153060913,-5.69999980926514,5.16113090515137,0,16,19.0968073541007,6.00000021222513e-06,6.58353097555353,1.95943496413627e-15,6.58353097555353,-764.764587402344,30.6316681899874,0
