datetime,roll_c,roll_m,yaw_c,yaw_m,pitch_c,pitch_m,aspd_m,vx_c,vx_m,vy_c,vy_m,vz_c,vz_m,aspd_error,alt_error,fault
0.00282979011535645,44.8199996948242,-13.5468463897705,-44,-84.1689682006836,-6.30999994277954,-7.14274072647095,NaN,NaN,NaN,NaN,NaN,NaN,NaN,NaN,NaN,0
0.0363914966583252,44.8400001525879,-13.5468463897705,-44,-84.1689682006836,-6.28999996185303,-7.14274072647095,23.0057811737061,16,4.7193338131522,-3.5527136788005e-15,-22.4801443098461,1.95943496413627e-15,-22.4801443098461,-700.578125,1.62999999523163,0
0.10391902923584,44.8699989318848,-13.5468463897705,-44,-84.1689682006836,-4.65999984741211,-7.14274072647095,23.1003890226149,16,4.89359611113047,-3.5527136788005e-15,-22.3750259082547,1.95943496413627e-15,-22.3750259082547,-710.59403180749,1.58007761579865,0
0.149535417556763,44.879997253418,-13.5468463897705,-44,-84.1689682006836,-4.6399998664856,-7.14274072647095,23.1060962677002,16,5.02659260308399,-3.5527136788005e-15,-22.2912508578313,1.95943496413627e-15,-22.2912508578313,-710.609619140625,1.57999992370605,0
0.218925952911377,44.879997253418,16.03955078125,-44,-85.4593734741211,-2.99000000953674,-0.723178267478943,23.208446696462,16,5.31645552147989,-3.5527136788005e-15,-22.1132337000308,1.95943496413627e-15,-22.1132337000308,-721.811162348218,1.45042278842515,0
0.274348258972168,44.879997253418,16.03955078125,-44,-85.4593734741211,-1.33999991416931,-0.723178267478943,23.1570027290379,16,5.54773815830826,-3.5527136788005e-15,-21.9522342851771,1.95943496413627e-15,-21.9522342851771,-715.009291700003,1.24009974181842,0
0.312624216079712,44.879997253418,16.03955078125,-44,-85.4593734741211,-1.32999992370605,-0.723178267478943,23.1500606536865,16,5.71295036159818,-3.5527136788005e-15,-21.8429522513418,1.95943496413627e-15,-21.8429522513418,-715.006042480469,1.24000000953674,0
0.373860359191895,44.8699989318848,16.03955078125,-44,-85.4593734741211,0.280000001192093,-0.723178267478943,23.032110497748,16,5.99200463847186,-3.5527136788005e-15,-21.6542905442383,1.95943496413627e-15,-21.6542905442383,-702.692948852356,0.990966854825613,0
0.46744179725647,44.8600006103516,16.03955078125,-44,-85.4593734741211,0.310000002384186,-0.723178267478943,23.0264511108398,16,6.33106773266179,-3.5527136788005e-15,-21.4073306837602,1.95943496413627e-15,-21.4073306837602,-702.645141601563,0.989999949932098,0
0.521572351455688,43.8199996948242,25.531229019165,-44,-82.6727523803711,-0.349999994039536,1.88362193107605,22.8476707191576,16,6.44077192658366,-3.5527136788005e-15,-21.3320749945851,1.95943496413627e-15,-21.3320749945851,-684.281466609607,0.729633084207622,0
0.53227686882019,43.8199996948242,25.531229019165,-44,-82.6727523803711,-0.329999983310699,1.88362193107605,22.8148612976074,16,6.5280884708012,-3.5527136788005e-15,-21.2761460314345,1.95943496413627e-15,-21.2761460314345,-681.486145019531,0.689999997615814,0
0.598462343215942,42.1599998474121,25.531229019165,-44,-82.6727523803711,-1.54999995231628,1.88362193107605,22.6059602784212,16,7.04885199204779,-3.5527136788005e-15,-20.936161570472,1.95943496413627e-15,-20.936161570472,-658.912892597063,0.393212956187429,0
0.637752771377563,42.1499977111816,25.531229019165,-44,-82.6727523803711,-1.53999996185303,1.88362193107605,22.5866851806641,16,7.25367674929224,-3.5527136788005e-15,-20.7907396249936,1.95943496413627e-15,-20.7907396249936,-658.668518066406,0.389999985694885,0
0.693962812423706,40.3099975585938,25.531229019165,-44,-82.6727523803711,0.0999999940395355,1.88362193107605,22.387497361604,16,7.47312883668398,-3.5527136788005e-15,-20.6350545385443,1.95943496413627e-15,-20.6350545385443,-633.160828614916,0.0813955117857708,0
0.721472978591919,40.3099975585938,25.531229019165,-44,-82.6727523803711,0.119999997317791,1.88362193107605,22.3221893310547,16,7.69119789400696,-3.5527136788005e-15,-20.4868834069211,1.95943496413627e-15,-20.4868834069211,-632.218933105469,0.0700000002980232,0
0.774885416030884,38.3099975585938,25.531229019165,-44,-82.6727523803711,1.8199999332428,1.88362193107605,22.0808033556638,16,8.03893461077021,-3.5527136788005e-15,-20.2567467846449,1.95943496413627e-15,-20.2567467846449,-607.005733890851,-0.239409818577743,0
0.827135562896729,38.3099975585938,25.531229019165,-44,-82.6727523803711,1.83999991416931,1.88362193107605,22.0695762634277,16,8.25935503535328,-3.5527136788005e-15,-20.0965621811686,1.95943496413627e-15,-20.0965621811686,-606.957641601563,-0.239999994635582,0
0.866254329681396,38.2999992370605,32.3318290710449,-44,-75.3615341186523,1.86000001430511,3.21731877326965,22.0695762634277,16,8.48614673898116,-3.5527136788005e-15,-19.9333927983734,1.95943496413627e-15,-19.9333927983734,-606.957641601563,-0.239999994635582,0
0.900257349014282,36.0900001525879,32.3318290710449,-44,-75.3615341186523,1.0699999332428,3.21731877326965,21.6420584402943,16,8.70772580502814,-3.5527136788005e-15,-19.7724831550679,1.95943496413627e-15,-19.7724831550679,-564.182946455879,-0.548901436449768,0
0.985346555709839,33.8999977111816,32.3318290710449,-44,-75.3615341186523,-0.439999997615814,3.21731877326965,21.2379193097408,16,9.07534580867097,-3.5527136788005e-15,-19.4896748707549,1.95943496413627e-15,-19.4896748707549,-521.695704061329,-0.843540877487144,0
1.00175952911377,33.8999977111816,32.3318290710449,-44,-75.3615341186523,-0.439999997615814,3.21731877326965,21.2076416015625,16,9.16852216481765,-3.5527136788005e-15,-19.411305515178,1.95943496413627e-15,-19.411305515178,-520.76416015625,-0.849999964237213,0
1.05653214454651,33.8899993896484,32.3318290710449,-44,-75.3615341186523,-0.429999977350235,3.21731877326965,21.2076416015625,16,9.49802957857562,-3.5527136788005e-15,-19.1449764262556,1.95943496413627e-15,-19.1449764262556,-520.76416015625,-0.849999964237213,0
1.09806036949158,31.3999996185303,32.3318290710449,-44,-75.3615341186523,-1.9799998998642,3.21731877326965,20.9562838679537,16,9.7652024314191,-3.5527136788005e-15,-18.9443214098546,1.95943496413627e-15,-18.9443214098546,-495.067445797086,-1.10391750471933,0
1.18202781677246,28.3699989318848,34.3868446350098,-44,-71.7169723510742,-3.5699999332428,4.40095520019531,20.7667569234408,16,10.2407609340056,-3.5527136788005e-15,-18.5899944862204,1.95943496413627e-15,-18.5899944862204,-475.15181515798,-1.38768847771986,0
1.20858025550842,28.3599987030029,34.3868446350098,-44,-71.7169723510742,-3.5699999332428,4.40095520019531,20.7499389648438,16,10.4421978398448,-3.5527136788005e-15,-18.4172653209582,1.95943496413627e-15,-18.4172653209582,-474.993896484375,-1.38999998569489,0
1.26857161521912,25.2399997711182,34.3868446350098,-44,-71.7169723510742,-5.06999969482422,4.40095520019531,20.7202434246319,16,10.7745712685844,-3.5527136788005e-15,-18.1180827364008,1.95943496413627e-15,-18.1180827364008,-470.168246184762,-1.63775220835189,0
1.31177091598511,25.2299995422363,34.3868446350098,-44,-71.7169723510742,-5.06999969482422,4.40095520019531,20.7008006380637,16,10.9959584057313,-3.5527136788005e-15,-17.9170586677559,1.95943496413627e-15,-17.9170586677559,-469.9296875,-1.64999997615814,0
1.39975190162659,22.0100002288818,34.3868446350098,-44,-71.7169723510742,-6.58999967575073,4.40095520019531,20.7200328919134,16,11.4774198206465,-3.5527136788005e-15,-17.467559988884,1.95943496413627e-15,-17.467559988884,-472.010633350441,-1.91504576713708,0
1.47654795646667,18.7099990844727,34.3868446350098,-44,-71.7169723510742,-7.73000001907349,4.40095520019531,20.6726488696064,16,11.8677699046211,-3.5527136788005e-15,-17.0716869670942,1.95943496413627e-15,-17.0716869670942,-465.758357518138,-2.19938900894187,0
1.52375864982605,18.7099990844727,34.3868446350098,-44,-71.7169723510742,-7.73999977111816,4.40095520019531,20.6574459075928,16,12.071431506632,-3.5527136788005e-15,-16.8529101197512,1.95943496413627e-15,-16.8529101197512,-465.744598388672,-2.20000004768372,0
1.56147146224976,18.7199993133545,34.3868446350098,-44,-71.7169723510742,-7.75,4.40095520019531,20.6574459075928,16,12.2052003475347,-3.5527136788005e-15,-16.6980752691261,1.95943496413627e-15,-16.6980752691261,-465.744598388672,-2.20000004768372,0
1.61342406272888,15.8699998855591,34.3868446350098,-44,-71.7169723510742,-9.05000019073486,4.40095520019531,20.4352862182369,16,12.3235132944502,-3.5527136788005e-15,-16.537955559581,1.95943496413627e-15,-16.537955559581,-442.799880379238,-2.48932754508513,0
1.64740562438965,15.8800001144409,29.4934234619141,-44,-69.0298385620117,-9.06999969482422,6.15081548690796,20.1770531892909,16,12.4586683745595,-3.5527136788005e-15,-16.3336104506425,1.95943496413627e-15,-16.3336104506425,-442.746551513672,-2.49000000953674,0
1.74792051315308,13.5199995040894,29.4934234619141,-44,-69.0298385620117,-10.5,6.15081548690796,20.0270938873291,16,12.6629234359291,-3.5527136788005e-15,-16.0113364058766,1.95943496413627e-15,-16.0113364058766,-402.884906159581,-2.76877244635868,0
1.76598763465881,13.5199995040894,29.4934234619141,-44,-69.0298385620117,-10.5100002288818,6.15081548690796,20.0270938873291,16,12.7013742594221,-3.5527136788005e-15,-15.9533706133858,1.95943496413627e-15,-15.9533706133858,-402.709381103516,-2.76999998092651,0
1.81564712524414,11.5599994659424,29.4934234619141,-44,-69.0298385620117,-11.9200000762939,6.15081548690796,19.6522846427522,16,12.8136997719108,-3.5527136788005e-15,-15.7460331153644,1.95943496413627e-15,-15.7460331153644,-363.5052441298,-3.03968468067856,0
1.87159514427185,9.71000003814697,29.4934234619141,-44,-69.0298385620117,-13.2199993133545,6.15081548690796,19.3962107704325,16,12.9208944350475,-3.5527136788005e-15,-15.5390934333963,1.95943496413627e-15,-15.5390934333963,-338.766623785175,-3.26906103385584,0
1.91107773780823,9.71999931335449,29.4934234619141,-44,-69.0298385620117,-13.2399997711182,6.15081548690796,19.3866539001465,16,12.95198737984,-3.5527136788005e-15,-15.4515182206486,1.95943496413627e-15,-15.4515182206486,-338.665405273438,-3.26999998092651,0
2.01764273643494,8.34999942779541,29.4934234619141,-44,-69.0298385620117,-14.7299995422363,6.15081548690796,18.9713065697258,16,13.0462539643823,-3.5527136788005e-15,-15.182241099398,1.95943496413627e-15,-15.182241099398,-295.570327880349,-3.46967939890126,0
2.07213091850281,8.34999942779541,20.1842155456543,-44,-64.8902130126953,-14.75,1.1764600276947,18.635248272694,16,13.0889678926381,-3.5527136788005e-15,-15.0332683328739,1.95943496413627e-15,-15.0332683328739,-260.000947597312,-3.62980767727272,0
2.09681630134583,7.17000007629395,20.1842155456543,-44,-64.8902130126953,-16.1199989318848,1.1764600276947,18.5995826721191,16,13.0996549517735,-3.5527136788005e-15,-14.9826043367552,1.95943496413627e-15,-14.9826043367552,-259.958251953125,-3.62999987602234,0
2.15325593948364,7.17000007629395,20.1842155456543,-44,-64.8902130126953,-16.1399993896484,1.1764600276947,18.5995826721191,16,13.1246499807215,-3.5527136788005e-15,-14.8721277899628,1.95943496413627e-15,-14.8721277899628,-259.958251953125,-3.62999987602234,0
2.19117832183838,6.19999980926514,20.1842155456543,-44,-64.8902130126953,-17.5299987792969,1.1764600276947,18.2569480216883,16,13.1465312072492,-3.5527136788005e-15,-14.7901673456586,1.95943496413627e-15,-14.7901673456586,-219.10948665504,-3.75984248953171,0
2.25909066200256,6.19999980926514,20.1842155456543,-44,-64.8902130126953,-17.5499992370605,1.1764600276947,18.1905994415283,16,13.152938033924,-3.5527136788005e-15,-14.6717436302033,1.95943496413627e-15,-14.6717436302033,-219.059936523438,-3.75999999046326,0
2.2987334728241,5.40999984741211,20.1842155456543,-44,-64.8902130126953,-18.8699989318848,1.1764600276947,17.9873836397453,16,13.1563127768471,-3.5527136788005e-15,-14.6057761929411,1.95943496413627e-15,-14.6057761929411,-198.032718750061,-3.8282023264912,0
2.34907484054565,5.40000009536743,20.1842155456543,-44,-64.8902130126953,-18.8799991607666,1.1764600276947,17.8463345385127,16,13.1764226133617,-3.5527136788005e-15,-14.5209908712758,1.95943496413627e-15,-14.5209908712758,-194.395446777344,-3.83999991416931,0
2.40370535850525,4.63000011444092,13.2571210861206,-44,-60.6198959350586,-20.0699996948242,-4.54840803146362,17.7648658752441,16,13.1959265074968,-3.5527136788005e-15,-14.4372886253337,1.95943496413627e-15,-14.4372886253337,-176.626160264219,-3.87968813621864,0
2.47890090942383,4.13000011444092,13.2571210861206,-44,-60.6198959350586,-21.1499996185303,-4.54840803146362,17.6320533990119,16,13.176496904858,-3.5527136788005e-15,-14.3108592042983,1.95943496413627e-15,-14.3108592042983,-160.660555639817,-3.87999987602234,0
2.53834915161133,4.11999988555908,13.2571210861206,-44,-60.6198959350586,-21.1599998474121,-4.54840803146362,17.5610462454772,16,13.1758342459698,-3.5527136788005e-15,-14.2416769439367,1.95943496413627e-15,-14.2416769439367,-160.615539550781,-3.87999987602234,0
2.59456324577332,3.68999981880188,13.2571210861206,-44,-60.6198959350586,-22.1199989318848,-4.54840803146362,17.5053136253998,16,13.1798772011446,-3.5527136788005e-15,-14.1856367565993,1.95943496413627e-15,-14.1856367565993,-147.468426858474,-3.83003349074972,0
2.65552544593811,3.67999982833862,13.2571210861206,-44,-60.6198959350586,-22.1199989318848,-4.54840803146362,17.4672163015119,16,13.1791015395685,-3.5527136788005e-15,-14.114080487752,1.95943496413627e-15,-14.114080487752,-147.459594726563,-3.82999992370605,0
2.69078350067139,3.25,13.2571210861206,-44,-60.6198959350586,-22.8799991607666,-4.54840803146362,17.4627590179443,16,13.1715834675118,-3.5527136788005e-15,-14.0810397783834,1.95943496413627e-15,-14.0810397783834,-146.339857300549,-3.75432194709778,0
2.75633263587952,3.25,13.2571210861206,-44,-60.6198959350586,-22.8799991607666,-4.54840803146362,17.4481629516725,16,13.1694771491548,-3.5527136788005e-15,-14.0411037752047,1.95943496413627e-15,-14.0411037752047,-144.419789838094,-3.63019227612522,0
2.79440641403198,3.01999998092651,13.2571210861206,-44,-60.6198959350586,-23.439998626709,-4.54840803146362,17.4441680908203,16,13.1755079882526,-3.5527136788005e-15,-14.0223361792892,1.95943496413627e-15,-14.0223361792892,-144.416809082031,-3.62999987602234,0
2.83634328842163,3.01999998092651,13.2571210861206,-44,-60.6198959350586,-23.4499988555908,-4.54840803146362,17.4441680908203,16,13.169831110726,-3.5527136788005e-15,-14.00315825455,1.95943496413627e-15,-14.00315825455,-144.416809082031,-3.62999987602234,0
2.90752816200256,2.8899998664856,8.43055629730225,-44,-58.4214096069336,-23.9200000762939,-10.3344898223877,17.3460577846213,16,13.1706007558175,-3.5527136788005e-15,-13.9880656890616,1.95943496413627e-15,-13.9880656890616,-134.119233212625,-3.49040090970873,0
2.92827606201172,2.8899998664856,8.43055629730225,-44,-58.4214096069336,-23.9200000762939,-10.3344898223877,17.3408966064453,16,13.1676605687736,-3.5527136788005e-15,-13.9897742953581,1.95943496413627e-15,-13.9897742953581,-134.089660644531,-3.49000000953674,0
2.99681425094604,2.80999994277954,8.43055629730225,-44,-58.4214096069336,-24.269998550415,-10.3344898223877,17.3807908700472,16,13.1618128863456,-3.5527136788005e-15,-13.98803967961,1.95943496413627e-15,-13.98803967961,-139.32356414103,-3.32039101275831,0
3.05367231369019,2.79999995231628,8.43055629730225,-44,-58.4214096069336,-24.269998550415,-10.3344898223877,17.3933563232422,16,13.1563583158545,-3.5527136788005e-15,-13.9826120400887,1.95943496413627e-15,-13.9826120400887,-139.335632324219,-3.3199999332428,0
3.09682774543762,2.83999991416931,8.43055629730225,-44,-58.4214096069336,-24.5299987792969,-10.3344898223877,17.407174643925,16,13.1579254865613,-3.5527136788005e-15,-13.983681040033,1.95943496413627e-15,-13.983681040033,-140.828244404682,-3.13061587808281,0
3.15742230415344,2.82999992370605,8.43055629730225,-44,-58.4214096069336,-24.5299987792969,-10.3344898223877,17.4083309173584,16,13.1689834160731,-3.5527136788005e-15,-13.9904663065548,1.95943496413627e-15,-13.9904663065548,-140.833099365234,-3.12999987602234,0
3.22688579559326,2.79999995231628,8.43055629730225,-44,-58.4214096069336,-24.6000003814697,-10.3344898223877,17.463081506788,16,13.1833172738162,-3.5527136788005e-15,-13.9988988360199,1.95943496413627e-15,-13.9988988360199,-146.477171265645,-2.92018934973584,0
3.27754497528076,2.75999999046326,8.43055629730225,-44,-58.4214096069336,-24.5499992370605,-10.3344898223877,17.5849515618888,16,13.1863387448703,-3.5527136788005e-15,-14.0001372045882,1.95943496413627e-15,-14.0001372045882,-159.395756816208,-2.68077426191691,0
3.31242537498474,2.75,8.43055629730225,-44,-58.4214096069336,-24.5499992370605,-10.3344898223877,17.5943756103516,16,13.1821271188404,-3.5527136788005e-15,-14.0032781495873,1.95943496413627e-15,-14.0032781495873,-159.437561035156,-2.67999982833862,0
3.34558510780334,2.75,8.43055629730225,-44,-58.4214096069336,-24.5499992370605,-10.3344898223877,17.5943756103516,16,13.1859948324751,-3.5527136788005e-15,-14.0010059020353,1.95943496413627e-15,-14.0010059020353,-159.437561035156,-2.67999982833862,0
3.37905955314636,2.75,4.58817625045776,-44,-53.9340782165527,-24.4699993133545,-16.4739627838135,17.5760654285813,16,13.1876253442883,-3.5527136788005e-15,-13.9978410460735,1.95943496413627e-15,-13.9978410460735,-156.725876393691,-2.41020788529998,0
3.44077682495117,2.75,4.58817625045776,-44,-53.9340782165527,-24.4699993133545,-16.4739627838135,17.5672378540039,16,13.1811727795757,-3.5527136788005e-15,-13.9915897476941,1.95943496413627e-15,-13.9915897476941,-156.723785400391,-2.40999984741211,0
3.49293851852417,2.72000002861023,4.58817625045776,-44,-53.9340782165527,-24.3400001525879,-16.4739627838135,17.5329778044438,16,13.197445980649,-3.5527136788005e-15,-13.991861336683,1.95943496413627e-15,-13.991861336683,-152.716852546504,-2.09115539681977,0
3.5474534034729,2.72000002861023,4.58817625045776,-44,-53.9340782165527,-24.3400001525879,-16.4739627838135,17.5270233154297,16,13.2123835985151,-3.5527136788005e-15,-14.0046065569051,1.95943496413627e-15,-14.0046065569051,-152.702331542969,-2.08999991416931,0
3.5975193977356,2.59999990463257,4.58817625045776,-44,-53.9340782165527,-24.189998626709,-16.4739627838135,17.5835797066744,16,13.2545035385651,-3.5527136788005e-15,-14.031745304804,1.95943496413627e-15,-14.031745304804,-158.424140521189,-1.77142912711717,0
3.61805605888367,2.59999990463257,4.58817625045776,-44,-53.9340782165527,-24.189998626709,-16.4739627838135,17.591682434082,16,13.2713962846544,-3.5527136788005e-15,-14.04125240611,1.95943496413627e-15,-14.04125240611,-159.168243408203,-1.73000001907349,0
3.70599412918091,2.50999999046326,4.58817625045776,-44,-53.9340782165527,-24.0299987792969,-16.4739627838135,17.6380574313267,16,13.3210581600302,-3.5527136788005e-15,-14.0685311781397,1.95943496413627e-15,-14.0685311781397,-164.297606038048,-1.34206801760856,0
3.73687791824341,2.50999999046326,3.02029657363892,-44,-52.0210990905762,-24.0299987792969,-18.9278755187988,17.6432495117188,16,13.3353259125168,-3.5527136788005e-15,-14.0715479292179,1.95943496413627e-15,-14.0715479292179,-164.324951171875,-1.33999991416931,0
3.83106017112732,2.44000005722046,3.02029657363892,-44,-52.0210990905762,-23.8500003814697,-18.9278755187988,17.731105370286,16,13.4122510425794,-3.5527136788005e-15,-14.1441517118618,1.95943496413627e-15,-14.1441517118618,-173.370633849905,-0.920279012107819,0
3.85297656059265,2.44000005722046,3.02029657363892,-44,-52.0210990905762,-23.8500003814697,-18.9278755187988,17.7337665557861,16,13.4455605252798,-3.5527136788005e-15,-14.1789444185944,1.95943496413627e-15,-14.1789444185944,-173.376647949219,-0.919999957084656,0
3.90774250030518,2.41999983787537,3.02029657363892,-44,-52.0210990905762,-23.5,-18.9278755187988,17.9540433865873,16,13.4738864709515,-3.5527136788005e-15,-14.2186939630248,1.95943496413627e-15,-14.2186939630248,-198.192525926637,-0.482452716587925,0
3.93924951553345,2.41999983787537,3.02029657363892,-44,-52.0210990905762,-23.5,-18.9278755187988,17.9833164215088,16,13.5052843308315,-3.5527136788005e-15,-14.2553946401327,1.95943496413627e-15,-14.2553946401327,-198.331634521484,-0.479999989271164,0
4.03197121620178,2.49000000953674,3.02029657363892,-44,-52.0210990905762,-23.1999988555908,-18.9278755187988,18.055363526269,16,13.5585710487105,-3.5527136788005e-15,-14.3403640551572,1.95943496413627e-15,-14.3403640551572,-205.810317410465,-0.0318652699084609,0
4.08005023002625,2.67999982833862,3.21324634552002,-44,-53.5625419616699,-22.9300003051758,-20.1249809265137,18.1169783915948,16,13.5831515174376,-3.5527136788005e-15,-14.4039922535794,1.95943496413627e-15,-14.4039922535794,-212.120755143023,0.424037447615853,0
4.13589954376221,2.67999982833862,3.21324634552002,-44,-53.5625419616699,-22.9300003051758,-20.1249809265137,18.1220321655273,16,13.6250609673977,-3.5527136788005e-15,-14.4787777158988,1.95943496413627e-15,-14.4787777158988,-212.203216552734,0.429999977350235,0
4.18245339393616,2.86999988555908,3.21324634552002,-44,-53.5625419616699,-22.5399990081787,-20.1249809265137,18.3430545752431,16,13.66137059516,-3.5527136788005e-15,-14.5297110476934,1.95943496413627e-15,-14.5297110476934,-236.044212664769,0.9090245671543,0
4.23381209373474,2.86999988555908,3.21324634552002,-44,-53.5625419616699,-22.5399990081787,-20.1249809265137,18.3609275817871,16,13.6843193241905,-3.5527136788005e-15,-14.5895884761132,1.95943496413627e-15,-14.5895884761132,-236.092758178711,0.909999966621399,0
4.27335429191589,3.0699999332428,3.21324634552002,-44,-53.5625419616699,-22.0799999237061,-20.1249809265137,18.5169047913857,16,13.7221180199554,-3.5527136788005e-15,-14.6569609615809,1.95943496413627e-15,-14.6569609615809,-253.592531147474,1.37527361835814,0
4.31349229812622,3.0699999332428,3.21324634552002,-44,-53.5625419616699,-22.0799999237061,-20.1249809265137,18.5489864349365,16,13.7515280147766,-3.5527136788005e-15,-14.7235451928357,1.95943496413627e-15,-14.7235451928357,-254.898651123047,1.4099999666214,0
4.3695023059845,3.25,3.21324634552002,-44,-53.5625419616699,-21.5699996948242,-20.1249809265137,18.6727456346043,16,13.8121105079193,-3.5527136788005e-15,-14.8046995896416,1.95943496413627e-15,-14.8046995896416,-271.546895852131,1.90263360555697,0
4.43476104736328,3.25,3.21324634552002,-44,-53.5625419616699,-21.5699996948242,-20.1249809265137,18.7179584503174,16,13.8527572515884,-3.5527136788005e-15,-14.8528330605317,1.95943496413627e-15,-14.8528330605317,-271.795837402344,1.9099999666214,0
4.49952149391174,3.33999991416931,3.21324634552002,-44,-53.5625419616699,-21.1800003051758,-20.1249809265137,18.7262918132369,16,13.9195375066966,-3.5527136788005e-15,-14.9303232228394,1.95943496413627e-15,-14.9303232228394,-272.698236065221,2.40894434642063,0
4.53822159767151,3.33999991416931,2.71482014656067,-44,-53.1277160644531,-21.1800003051758,-21.0245628356934,18.7271823883057,16,13.9719455759886,-3.5527136788005e-15,-14.9693846032605,1.95943496413627e-15,-14.9693846032605,-272.718231201172,2.41999983787537,0
4.59132122993469,3.29999995231628,2.71482014656067,-44,-53.1277160644531,-20.9099998474121,-21.0245628356934,18.7468741265272,16,14.0402040329677,-3.5527136788005e-15,-15.022679728046,1.95943496413627e-15,-15.022679728046,-274.73395707134,2.94950546724265,0
4.62470149993896,3.29999995231628,2.71482014656067,-44,-53.1277160644531,-20.9099998474121,-21.0245628356934,18.7473583221436,16,14.1260126168656,-3.5527136788005e-15,-15.0679312938971,1.95943496413627e-15,-15.0679312938971,-274.73583984375,2.95000004768372,0
4.69977617263794,3.01999998092651,2.71482014656067,-44,-53.1277160644531,-20.6099987030029,-21.0245628356934,18.8220434799718,16,14.2727343905936,-3.5527136788005e-15,-15.1307141216929,1.95943496413627e-15,-15.1307141216929,-283.089010640491,3.4795486643026,0
4.72947525978088,3.01999998092651,2.71482014656067,-44,-53.1277160644531,-20.6099987030029,-21.0245628356934,18.830961227417,16,14.3290648437659,-3.5527136788005e-15,-15.1517572971296,1.95943496413627e-15,-15.1517572971296,-283.096130371094,3.48000001907349,0
4.77275776863098,2.50999999046326,2.71482014656067,-44,-53.1277160644531,-20.439998626709,-21.0245628356934,18.8730239697508,16,14.4599826152514,-3.5527136788005e-15,-15.1901591450149,1.95943496413627e-15,-15.1901591450149,-287.529208220917,3.99846811577476,0
4.82488441467285,2.50999999046326,7.8609824180603,-44,-53.484375,-20.439998626709,-21.1839828491211,18.876277923584,16,14.5806330160843,-3.5527136788005e-15,-15.2310281286922,1.95943496413627e-15,-15.2310281286922,-287.778115418244,4.01688294468535,0
4.86920285224915,1.93999993801117,7.8609824180603,-44,-53.484375,-19.9300003051758,-21.1839828491211,18.9808106170423,16,14.6875972337511,-3.5527136788005e-15,-15.2577834047393,1.95943496413627e-15,-15.2577834047393,-299.191500058517,4.53954726821939,0
4.92175960540771,1.93999993801117,7.8609824180603,-44,-53.484375,-19.9300003051758,-21.1839828491211,18.9920139312744,16,14.7659560435292,-3.5527136788005e-15,-15.2893839488325,1.95943496413627e-15,-15.2893839488325,-299.201385498047,4.53999996185303,0
4.99495959281921,1.42999994754791,7.8609824180603,-44,-53.484375,-19.0100002288818,-21.1839828491211,19.1318278785425,16,14.9249615293944,-3.5527136788005e-15,-15.3324017139341,1.95943496413627e-15,-15.3324017139341,-313.874266469647,5.06880412871608,0
5.05762839317322,1.42999994754791,7.8609824180603,-44,-53.484375,-19.0100002288818,-21.1839828491211,19.1390743255615,16,15.0294548457673,-3.5527136788005e-15,-15.355724287522,1.95943496413627e-15,-15.355724287522,-313.907440185547,5.06999969482422,0
5.11680817604065,1,7.8609824180603,-44,-53.484375,-18.1099987030029,-21.1839828491211,19.2216607450214,16,15.1197637493245,-3.5527136788005e-15,-15.3975839851961,1.95943496413627e-15,-15.3975839851961,-322.744846649318,5.60862165936694,0
5.19362139701843,0.629999995231628,7.8609824180603,-44,-53.484375,-17.1399993896484,-21.1839828491211,19.3600256754786,16,15.2884896507389,-3.5527136788005e-15,-15.4786060363855,1.95943496413627e-15,-15.4786060363855,-336.267884749335,6.14797900039185,0
5.23824834823608,0.639999985694885,7.8609824180603,-44,-53.484375,-17.1399993896484,-21.1839828491211,19.3631858825684,16,15.3558220818451,-3.5527136788005e-15,-15.5113575064227,1.95943496413627e-15,-15.5113575064227,-336.318603515625,6.15000009536743,0
5.28577399253845,0.359999984502792,8.55795860290527,-44,-58.0268630981445,-16.2600002288818,-19.3597297668457,19.4242885702062,16,15.4097545426481,-3.5527136788005e-15,-15.5494441002488,1.95943496413627e-15,-15.5494441002488,-344.865743190796,6.68659485381736,0
5.34033417701721,0.359999984502792,8.55795860290527,-44,-58.0268630981445,-16.2600002288818,-19.3597297668457,19.4491996765137,16,15.4839188159766,-3.5527136788005e-15,-15.5889330365046,1.95943496413627e-15,-15.5889330365046,-344.919982910156,6.69000005722046,0
5.42624068260193,0.199999988079071,8.55795860290527,-44,-58.0268630981445,-15.4799995422363,-19.3597297668457,19.512530896563,16,15.5534158329459,-3.5527136788005e-15,-15.6539414104299,1.95943496413627e-15,-15.6539414104299,-351.645474042465,7.23918960499642,0
5.46559882164001,0.199999988079071,8.55795860290527,-44,-58.0268630981445,-15.4799995422363,-19.3597297668457,19.523703661712,16,15.5818073882,-3.5527136788005e-15,-15.69333908235,1.95943496413627e-15,-15.69333908235,-352.523733014305,7.7794818102834,0
5.51992869377136,0.239999994635582,8.55795860290527,-44,-58.0268630981445,-14.7399997711182,-19.3597297668457,19.5252456665039,16,15.6159892429337,-3.5527136788005e-15,-15.7480995283431,1.95943496413627e-15,-15.7480995283431,-352.524566650391,7.77999973297119,0
5.57169771194458,0.349999994039536,8.55795860290527,-44,-58.0268630981445,-13.9099998474121,-19.3597297668457,19.6177866592571,16,15.6807137817357,-3.5527136788005e-15,-15.8222259395194,1.95943496413627e-15,-15.8222259395194,-362.108367519869,8.31860327065386,0
5.66835594177246,0.349999994039536,8.55795860290527,-44,-58.0268630981445,-13.9099998474121,-19.3597297668457,19.6799124856833,16,15.7375966977511,-3.5527136788005e-15,-15.9117249521678,1.95943496413627e-15,-15.9117249521678,-362.311157226563,8.32999992370605,0
5.70115923881531,0.5,8.55795860290527,-44,-58.0268630981445,-13.1599998474121,-19.3597297668457,19.6834125518799,16,15.7514334412846,-3.5527136788005e-15,-15.9639652218969,1.95943496413627e-15,-15.9639652218969,-368.328269688542,8.8788164122722,0
5.73184895515442,0.5,8.55795860290527,-44,-58.0268630981445,-13.1599998474121,-19.3597297668457,19.6834125518799,16,15.765439233575,-3.5527136788005e-15,-15.9910698222936,1.95943496413627e-15,-15.9910698222936,-368.341247558594,8.88000011444092,0
5.77149248123169,0.699999988079071,1.09027290344238,-44,-56.305046081543,-12.3199996948242,-17.7030391693115,19.9130755838398,16,15.8234686576331,-3.5527136788005e-15,-16.0578762243541,1.95943496413627e-15,-16.0578762243541,-392.512844420578,9.42897140881561,0
5.82629156112671,0.699999988079071,1.09027290344238,-44,-56.305046081543,-12.3199996948242,-17.7030391693115,19.9255809783936,16,15.8383163860057,0.00123232187975332,-16.0994687338643,1.95943496413627e-15,-16.0994687338643,-392.55810546875,9.42999935150146,0
5.86126017570496,0.699999988079071,1.09027290344238,-44,-56.305046081543,-12.3199996948242,-17.7030391693115,20.0388135196775,16,15.8634745969703,0.00134800001978874,-16.1328671195168,1.95943496413627e-15,-16.1328671195168,-392.55810546875,9.42999935150146,0
5.91901874542236,0.839999973773956,1.09027290344238,-44,-56.305046081543,-11.4799995422363,-17.7030391693115,20.0527801513672,16,15.9192813770027,0.00134800001978874,-16.2171058440949,1.95943496413627e-15,-16.2171058440949,-405.158665185746,9.96493253452864,0
5.95603084564209,0.849999964237213,1.09027290344238,-44,-56.305046081543,-11.4899997711182,-17.7030391693115,20.3543389697414,16,15.9622458037214,0.00134800001978874,-16.2682121825484,1.95943496413627e-15,-16.2682121825484,-436.571915747644,10.4872111815025,0
6.0172815322876,0.979999959468842,1.09027290344238,-44,-56.305046081543,-10.5500001907349,-17.7030391693115,20.3734569549561,15.9999981389686,16.0153941265147,0.00838974566146562,-16.3253684163908,1.95943455090429e-15,-16.3253684163908,-437.345703125,10.5,0
6.0841646194458,1.13999998569489,1.09027290344238,-44,-56.305046081543,-9.64999961853027,-17.7030391693115,20.5867131215825,15.9999980926514,16.0387052350951,0.00856500025838614,-16.376586847338,1.95943454061979e-15,-16.376586847338,-459.695776834779,10.9992155716165,0
6.10903072357178,1.13999998569489,0.359219431877136,-44,-54.5777587890625,-9.64999961853027,-15.6151533126831,20.5973091125488,15.9999980926514,16.0543360158083,0.00856500025838614,-16.3916217225255,1.95943454061979e-15,-16.3916217225255,-459.730895996094,11,0
6.17731976509094,1.20999991893768,0.359219431877136,-44,-54.5777587890625,-8.86999988555908,-15.6151533126831,20.6900348765349,15.9999980926514,16.0484504038775,0.00856500025838614,-16.4167323873702,1.95943454061979e-15,-16.4167323873702,-469.428557414564,11.4990827425821,0
6.21150040626526,1.20999991893768,0.359219431877136,-44,-54.5777587890625,-8.86999988555908,-15.6151533126831,20.6944637298584,15.9999980926514,16.0632988235282,0.00856500025838614,-16.4306991987807,1.95943454061979e-15,-16.4306991987807,-469.446380615234,11.5,0
6.28827548027039,2.02999997138977,0.359219431877136,-44,-54.5777587890625,-8.07999992370605,-15.6151533126831,20.7857855729053,15.9988569860289,16.1084737821439,0.185808261269526,-16.4895261326754,1.959294835735e-15,-16.4895261326754,-479.15598983824,11.9897526739573,0
6.35232615470886,2.03999996185303,0.359219431877136,-44,-54.5777587890625,-8.07999992370605,-15.6151533126831,20.7916088104248,15.9987821578979,16.1650216528495,0.197430998086929,-16.5426042609016,1.95928567457931e-15,-16.5426042609016,-479.160888671875,11.9899997711182,0
6.38888335227966,2.69000005722046,0.359219431877136,-44,-54.5777587890625,-7.17999982833862,-15.6151533126831,21.0487084426111,15.9987821578979,16.2080976386284,0.197430998086929,-16.5709163020093,1.95928567457931e-15,-16.5709163020093,-505.8846340077,12.4335182048766,0
6.46129655838013,2.69000005722046,0.359219431877136,-44,-54.5777587890625,-7.17999982833862,-15.6151533126831,21.0687770843506,15.9987821578979,16.2371752460589,0.197430998086929,-16.6126114326803,1.95928567457931e-15,-16.6126114326803,-506.877716064453,12.4499998092651,0
6.48513770103455,2.70000004768372,0.359219431877136,-44,-54.5777587890625,-6.3899998664856,-15.6151533126831,21.248553824774,15.9987821578979,16.2478717505194,0.197430998086929,-16.6211457487993,1.95928567457931e-15,-16.6211457487993,-527.487735859398,12.8796223239087,0
6.5114324092865,2.70000004768372,1.28858864307404,-44,-55.6344947814941,-6.3899998664856,-11.6239624023438,21.2750587463379,15.9970993812359,16.2681402059272,0.303763069538536,-16.6205753265875,1.95907954991264e-15,-16.6205753265875,-527.505859375,12.8800001144409,0
6.56825232505798,3.37999987602234,1.28858864307404,-43,-55.6344947814941,-5.82999992370605,-11.6239624023438,21.320041753811,15.9970188140869,16.285228394878,0.308853983879089,-16.630191050135,1.95906968117777e-15,-16.630191050135,-534.093545048511,13.276730698853,0
6.64423084259033,3.37999987602234,1.28858864307404,-43,-55.6344947814941,-5.82999992370605,-11.6239624023438,21.3414783477783,15.9970188140869,16.3015107999069,0.308853983879089,-16.6467647408517,1.95906968117777e-15,-16.6467647408517,-534.147827148438,13.2799997329712,0
6.71489119529724,3.42999982833862,1.28858864307404,-43,-55.6344947814941,-5.17999982833862,-11.6239624023438,21.5624562502762,15.9777750724887,16.3136262993378,0.834362095297283,-16.6597617403392,1.95671311060944e-15,-16.6597617403392,-557.233677697015,13.6376191986703,0
6.79062581062317,7.6399998664856,1.28858864307404,-41,-55.6344947814941,-4.61999988555908,-11.6239624023438,21.6226353452271,15.9767627716064,16.2924375549104,0.862006008625031,-16.6818847905046,1.95658914519173e-15,-16.6818847905046,-562.364973284316,13.9595718278438,0
6.81931114196777,7.6399998664856,1.28858864307404,-41,-55.6344947814941,-4.61999988555908,-11.6239624023438,21.6237163543701,15.9767627716064,16.2908759836683,0.862006008625031,-16.6769781464056,1.95658914519173e-15,-16.6769781464056,-562.371643066406,13.960000038147,0
6.87198090553284,7.69999980926514,1.28858864307404,-41,-55.6344947814941,-4.21999979019165,-11.6239624023438,21.7141841020865,15.9767627716064,16.2853173198516,0.862006008625031,-16.6657915756474,1.95658914519173e-15,-16.6657915756474,-572.463038622266,14.249447539135,0
6.91233015060425,7.69999980926514,1.28858864307404,-41,-55.6344947814941,-4.21999979019165,-11.6239624023438,21.7248229980469,15.9767627716064,16.2695033055426,0.862006008625031,-16.6584408691185,1.95658914519173e-15,-16.6584408691185,-572.482299804688,14.25,0
6.98322463035583,9.72999954223633,1.01568984985352,-40,-57.8956832885742,-3.90999984741211,-7.06213426589966,21.6592310994759,15.960262395554,16.2422323712302,1.12675662021493,-16.6456715767229,1.95456837335309e-15,-16.6456715767229,-565.886380857347,14.499867135337,0
7.01416802406311,9.73999977111816,1.01568984985352,-40,-57.8956832885742,-3.90999984741211,-7.06213426589966,21.6588287353516,15.9601583480835,16.2344535058102,1.12842607498169,-16.6280387513919,1.95455563084361e-15,-16.6280387513919,-565.882873535156,14.5,0
7.08420968055725,9.63000011444092,1.01568984985352,-40,-57.8956832885742,-3.77999997138977,-7.06213426589966,21.6165577706022,15.9601583480835,16.213067665143,1.12842607498169,-16.5920342937766,1.95455563084361e-15,-16.5920342937766,-560.665562021936,14.7289347701584,0
7.10982513427734,9.63000011444092,1.01568984985352,-40,-57.8956832885742,-3.77999997138977,-7.06213426589966,21.6064128875732,15.9601583480835,16.1916207608724,1.12842607498169,-16.5759638817273,1.95455563084361e-15,-16.5759638817273,-560.641296386719,14.7299995422363,0
7.18180727958679,9.59000015258789,1.01568984985352,-40,-57.8956832885742,-3.6399998664856,-7.06213426589966,21.5518356275658,15.9601583480835,16.1724981654024,1.12842607498169,-16.5310281634762,1.95455563084361e-15,-16.5310281634762,-554.96006170328,14.9291443102302,0
7.23935461044312,9.59999942779541,1.01568984985352,-40,-57.8956832885742,-3.6399998664856,-7.06213426589966,21.5493564605713,15.7850011539699,16.1601660564696,2.61126285067605,-16.4721081642371,1.93310506187513e-15,-16.4721081642371,-554.935668945313,14.9299993515015,0
7.30554103851318,19.7299995422363,1.01568984985352,-35,-57.8956832885742,-3.65999984741211,-7.06213426589966,21.4605521805295,15.7838191986084,16.1318089694612,2.62126898765564,-16.4264559178379,1.93296031409512e-15,-16.4264559178379,-545.382623330334,15.0990190042364,0
7.32644820213318,19.7399997711182,1.01568984985352,-35,-57.8956832885742,-3.65999984741211,-7.06213426589966,21.4532718658447,15.7838191986084,16.1259805602243,2.62126898765564,-16.4023924479715,1.93296031409512e-15,-16.4023924479715,-545.327209472656,15.0999994277954,0
7.39648127555847,19.439998626709,3.26626873016357,-35,-57.7873153686523,-3.72000002861023,-4.12699174880981,21.3547130264125,15.7838191986084,16.1252580958749,2.62126898765564,-16.3091257821286,1.93296031409512e-15,-16.3091257821286,-534.837395561604,15.2497456769157,0
7.43066573143005,19.4499988555908,3.26626873016357,-35,-57.7873153686523,-3.72000002861023,-4.12699174880981,21.3481960296631,15.7838191986084,16.122061678838,2.62126898765564,-16.278689473446,1.93296031409512e-15,-16.278689473446,-534.819580078125,15.25,0
7.46431469917297,19.4499988555908,3.26626873016357,-35,-57.7873153686523,-3.70999979972839,-4.12699174880981,21.2865501157338,15.7050091808051,16.1131009481493,3.05562111697722,-16.2293045062417,1.92330877411435e-15,-16.2293045062417,-528.190418704432,15.3789649247628,0
7.5147910118103,19,3.26626873016357,-35,-57.7873153686523,-3.77999997138977,-4.12699174880981,21.2813720703125,15.6985874176025,16.1230191090001,3.09101390838623,-16.145099138469,1.92252232708611e-15,-16.145099138469,-528.13720703125,15.3800001144409,0
7.60858535766602,21.3699989318848,3.26626873016357,-33,-57.7873153686523,-3.95999979972839,-4.12699174880981,21.1826142138632,15.6985874176025,16.1593768404693,3.09101390838623,-16.0006030986975,1.92252232708611e-15,-16.0006030986975,-518.064285676352,15.4781854260365,0
7.62593603134155,21.3699989318848,3.26626873016357,-33,-57.7873153686523,-3.95999979972839,-4.12699174880981,21.1787815093994,15.6985874176025,16.163159466807,3.09101390838623,-15.9677329112817,1.92252232708611e-15,-15.9677329112817,-517.878173828125,15.4799995422363,0
7.66412901878357,21.3799991607666,3.26626873016357,-33,-57.7873153686523,-3.95999979972839,-4.12699174880981,21.0200923429794,15.6985874176025,16.1757935519862,3.09101390838623,-15.8895511736656,1.92252232708611e-15,-15.8895511736656,-517.878173828125,15.4799995422363,0
7.70205879211426,20.6499996185303,3.26626873016357,-33,-57.7873153686523,-4.11999988555908,-4.12699174880981,21.0190448760986,15.6985874176025,16.20829163925,3.09101390838623,-15.7886343282457,1.92252232708611e-15,-15.7886343282457,-501.926388029798,15.5698762588925,0
7.76401686668396,20.6499996185303,3.26626873016357,-26,-57.7873153686523,-4.11999988555908,-4.12699174880981,20.8908419442785,15.1668402146607,16.2324081178281,5.07233764460974,-15.6929994930187,1.85740216093096e-15,-15.6929994930187,-488.376178565803,15.6399355554731,0
7.83297610282898,32.1100006103516,10.0160331726074,-26,-56.4843215942383,-4.40999984741211,-2.31906127929688,20.883638381958,15.1367225646973,16.2665598339682,5.18455791473389,-15.5693834386256,1.85371381737414e-15,-15.5693834386256,-488.363830566406,15.6399993896484,0
7.86536979675293,32.1100006103516,10.0160331726074,-26,-56.4843215942383,-4.40999984741211,-2.31906127929688,20.8672558981141,15.1367225646973,16.2992888263733,5.18455791473389,-15.4707194003463,1.85371381737414e-15,-15.4707194003463,-486.713784902934,15.6998964478473,0
7.89142107963562,31.2600002288818,10.0160331726074,-26,-56.4843215942383,-4.6100001335144,-2.31906127929688,20.8671092987061,15.1367225646973,16.3270379396578,5.18455791473389,-15.3898429642644,1.85371381737414e-15,-15.3898429642644,-486.7109375,15.6999998092651,0
7.95252847671509,31.2600002288818,10.0160331726074,-26,-56.4843215942383,-4.59999990463257,-2.31906127929688,20.8671092987061,14.2920417682547,16.3585083858798,7.17803239669353,-15.2623707918233,1.75027039096905e-15,-15.2623707918233,-486.7109375,15.6999998092651,0
7.98477840423584,40.5200004577637,10.0160331726074,-17,-56.4843215942383,-4.05999994277954,-2.31906127929688,20.7582630687279,14.0296770209408,16.3918727118447,7.68929845432105,-15.1769235083202,1.71813989572379e-15,-15.1769235083202,-473.836491873739,15.7497524378284,0
8.11320757865906,44.8600006103516,10.0160331726074,45,-56.4843215942383,-5.62999963760376,-2.31906127929688,20.5890511408363,0.571849647960156,16.4877960672435,15.6634791265601,-14.9248661081154,7.00313830209493e-17,-14.9248661081154,-459.312961559657,15.8098429618461,0
8.16286706924438,44.8499984741211,10.0160331726074,45,-56.4843215942383,-5.59999990463257,-2.31906127929688,20.5827503204346,3.00000010611257e-06,16.570054902322,16,-14.7595432870585,3.67394031065145e-22,-14.7595432870585,-459.275146484375,15.8099994659424,0
8.24547576904297,44.8499984741211,20.4379234313965,45,-53.387565612793,-5.02999973297119,-2.2920389175415,20.4519452534493,3.00000010611257e-06,16.6937422940543,16,-14.5310481736047,3.67394031065145e-22,-14.5310481736047,-444.77699237706,15.8684523621143,0
8.26950430870056,44.8499984741211,20.4379234313965,45,-53.387565612793,-5.01999998092651,-2.2920389175415,20.2951710658009,3.00000010611257e-06,16.7367656941817,16,-14.4647501908501,3.67394031065145e-22,-14.4647501908501,-429.052651605342,15.9265910108084,0
8.29779887199402,44.8499984741211,20.4379234313965,45,-53.387565612793,-5.15999984741211,-2.2920389175415,20.2541790008545,3.00000010611257e-06,16.8348698346786,16,-14.3197299287512,3.67394031065145e-22,-14.3197299287512,-425.417907714844,15.9399995803833,0
8.35542035102844,44.8400001525879,20.4379234313965,45,-53.387565612793,-5.11999988555908,-2.2920389175415,20.117050107313,3.00000010611257e-06,16.9569555816374,16,-14.1377383778612,3.67394031065145e-22,-14.1377383778612,-425.417907714844,15.9399995803833,0
8.40066814422607,44.8299980163574,20.4379234313965,46,-53.387565612793,-5.29999971389771,-2.2920389175415,20.0531692504883,3.00000010611257e-06,17.0718450307169,16,-13.9719448474349,3.67394031065145e-22,-13.9719448474349,-405.749644763837,16.0182782555492,0
8.4568350315094,44.8299980163574,20.4379234313965,46,-53.387565612793,-5.26999998092651,-2.2920389175415,19.9206674238349,3.00000010611257e-06,17.2169166724009,16,-13.7605138205877,3.67394031065145e-22,-13.7605138205877,-405.316925048828,16.0200004577637,0
8.48649764060974,44.8199996948242,20.4379234313965,47,-53.387565612793,-5.44999980926514,-2.2920389175415,19.9112548828125,3.00000010611257e-06,17.3085809538066,16,-13.6336421854003,3.67394031065145e-22,-13.6336421854003,-391.963542216893,16.1046839921066,0
8.5974977016449,44.8099975585938,20.4379234313965,49,-53.387565612793,-5.44999980926514,-2.2920389175415,19.9131455481949,3.00000010611257e-06,17.6407444272373,16,-13.1933830947746,3.67394031065145e-22,-13.1933830947746,-391.321789480897,16.1999205382636,0
8.63639116287231,44.8099975585938,20.4379234313965,49,-53.387565612793,-5.42000007629395,-2.2920389175415,19.9132194519043,3.00000010611257e-06,17.7577843496337,16,-13.030424428779,3.67394031065145e-22,-13.030424428779,-391.321960449219,16.1999988555908,0
8.69355893135071,44.7999992370605,33.5984039306641,51,-47.9283103942871,-5.40999984741211,-3.60606288909912,19.7898100899763,3.00000010611257e-06,17.9164133381645,16,-12.8098491722231,3.67394031065145e-22,-12.8098491722231,-378.938254391133,16.3097175318168,0
8.71127915382385,44.7999992370605,33.5984039306641,51,-47.9283103942871,-5.3899998664856,-3.60606288909912,19.7890644073486,3.00000010611257e-06,18.0249384451892,16,-12.6593980327008,3.67394031065145e-22,-12.6593980327008,-378.906433105469,16.3099994659424,0
8.7766637802124,44.7999992370605,33.5984039306641,53,-47.9283103942871,-5.34999990463257,-3.60606288909912,19.7100952709714,3.00000010611257e-06,18.2241345853638,16,-12.3819627735861,3.67394031065145e-22,-12.3819627735861,-370.188414597869,16.4297893965805,0
8.85885763168335,44.7899971008301,33.5984039306641,53,-47.9283103942871,-5.31999969482422,-3.60606288909912,19.7017307281494,3.00000010611257e-06,18.4682866850985,16,-12.0229201607251,3.67394031065145e-22,-12.0229201607251,-370.173065185547,16.4300003051758,0
8.90112018585205,44.7799987792969,33.5984039306641,55,-47.9283103942871,-5.32999992370605,-3.60606288909912,19.5857815017679,3.00000010611257e-06,18.597383507541,16,-11.8304144949828,3.67394031065145e-22,-11.8304144949828,-353.102864025544,16.5681184723287,0
8.93188619613647,44.7700004577637,33.5984039306641,55,-47.9283103942871,-5.31999969482422,-3.60606288909912,19.5105725481112,3.00000010611257e-06,18.6878933967017,16,-11.6962954246235,3.67394031065145e-22,-11.6962954246235,-352.870361328125,16.5699996948242,0
8.9888608455658,44.7599983215332,33.5984039306641,57,-47.9283103942871,-5.31999969482422,-3.60606288909912,19.4091924941895,3.00000010611257e-06,18.8423446520058,16,-11.4708094961022,3.67394031065145e-22,-11.4708094961022,-340.919088370526,16.7298669978256,0
9.01872158050537,44.75,38.6230773925781,57,-43.8087501525879,-5.31999969482422,-4.4924578666687,19.4090919494629,3.00000010611257e-06,18.959721069424,16,-11.2886428879445,3.67394031065145e-22,-11.2886428879445,-340.9091796875,16.7299995422363,0
9.10194730758667,44.7299995422363,38.6230773925781,58,-43.8087501525879,-5.17000007629395,-4.4924578666687,19.4246456755653,3.00000010611257e-06,19.195007688277,16,-10.9229889891702,3.67394031065145e-22,-10.9229889891702,-342.632388669216,16.9097328291755,0
9.12027335166931,44.7199974060059,38.6230773925781,58,-43.8087501525879,-5.17000007629395,-4.4924578666687,19.4263496398926,3.00000010611257e-06,19.2708053189635,16,-10.80705301409,3.67394031065145e-22,-10.80705301409,-342.634948730469,16.9099998474121,0
9.18372058868408,44.689998626709,38.6230773925781,60,-43.8087501525879,-4.86999988555908,-4.4924578666687,19.497388562102,3.00000010611257e-06,19.5036166956254,16,-10.4632869057093,3.67394031065145e-22,-10.4632869057093,-349.745772668775,17.1098867346042,0
9.22883248329163,44.6699981689453,38.6230773925781,60,-43.8087501525879,-4.86999988555908,-4.4924578666687,19.4974975585938,3.00000010611257e-06,19.6482404440251,16,-10.2377161518955,3.67394031065145e-22,-10.2377161518955,-349.749755859375,17.1099987030029,0
9.27335047721863,44.6399993896484,38.6230773925781,62,-43.8087501525879,-4.46999979019165,-4.4924578666687,19.5312615319343,3.00000010611257e-06,19.8479622850973,16,-9.9107876380962,3.67394031065145e-22,-9.9107876380962,-353.204351241062,17.3291658150285,0
9.31182646751404,44.6199989318848,38.6230773925781,62,-43.8087501525879,-4.46000003814697,-4.4924578666687,19.5321750640869,3.00000010611257e-06,19.9892595838456,16,-9.67275694295734,3.67394031065145e-22,-9.67275694295734,-353.217498779297,17.3299999237061,0
9.42025566101074,44.5699996948242,38.6230773925781,64,-43.8087501525879,-4.01999998092651,-4.4924578666687,19.5765897019004,3.00000010611257e-06,20.3103039445365,16,-9.11606596190123,3.67394031065145e-22,-9.11606596190123,-357.87234012705,17.5698987860247,0
9.49638962745667,44.5399971008301,41.6299514770508,66,-33.9225730895996,-3.53999996185303,-7.27454662322998,19.5493676060935,3.00000010611257e-06,20.5665659046934,16,-8.64147348476409,3.67394031065145e-22,-8.64147348476409,-354.762913403749,17.8196883087336,0
9.52190065383911,44.5399971008301,41.6299514770508,66,-33.9225730895996,-3.53999996185303,-7.27454662322998,19.5475902557373,3.00000010611257e-06,20.6315369176428,16,-8.51586434493752,3.67394031065145e-22,-8.51586434493752,-354.759033203125,17.8199996948242,0
9.61968278884888,44.5200004577637,41.6299514770508,68,-33.9225730895996,-3.05999994277954,-7.27454662322998,19.5337297494747,3.00000010611257e-06,20.9491557432881,16,-7.88684815465589,3.67394031065145e-22,-7.88684815465589,-353.363800672335,18.0907843732384,0
9.69486784934998,44.5099983215332,41.6299514770508,70,-33.9225730895996,-2.60999989509583,-7.27454662322998,19.4720912559386,3.00000010611257e-06,21.20943557126,16,-7.34840563190791,3.67394031065145e-22,-7.34840563190791,-347.11167293017,18.384354236122,0
9.7238290309906,44.5099983215332,41.6299514770508,70,-33.9225730895996,-2.59999990463257,-7.27454662322998,19.4698848724365,3.00000010611257e-06,21.2750595511521,16,-7.20786769299526,3.67394031065145e-22,-7.20786769299526,-346.988494873047,18.3899993896484,0
9.74871516227722,44.5,41.6299514770508,70,-33.9225730895996,-2.58999991416931,-7.27454662322998,19.46178852246,3.00000010611257e-06,21.3607860368577,16,-7.0188959122463,3.67394031065145e-22,-7.0188959122463,-346.988494873047,18.3899993896484,0
9.80376482009888,44.5,41.6299514770508,71,-33.9225730895996,-2.16999983787537,-7.27454662322998,19.4513759613037,3.00000010611257e-06,21.5177314139526,16,-6.66854320675689,3.67394031065145e-22,-6.66854320675689,-345.188503694554,18.6914737983967,0
9.83232808113098,44.5,41.6299514770508,71,-33.9225730895996,-2.15999984741211,-7.27454662322998,19.4513759613037,3.00000010611257e-06,21.6283336024107,16,-6.39514515121228,3.67394031065145e-22,-6.39514515121228,-345.137603759766,18.6999988555908,0
9.89369344711304,44.4899978637695,41.6299514770508,73,-33.9225730895996,-1.75,-7.27454662322998,19.4525213016872,3.00000010611257e-06,21.7514823000616,16,-6.08516512682903,3.67394031065145e-22,-6.08516512682903,-345.258025213143,19.0375159536437,0
9.91566729545593,44.4899978637695,44.4460411071777,73,-24.2283000946045,-1.74000000953674,-7.92524766921997,19.4525890350342,3.00000010611257e-06,21.8610813286122,16,-5.81153581964196,3.67394031065145e-22,-5.81153581964196,-345.258911132813,19.0399990081787,0
10.0266332626343,44.4899978637695,44.4460411071777,75,-24.2283000946045,-1.27999997138977,-7.92524766921997,19.5025782093907,3.00000010611257e-06,22.1341281270563,16,-5.04437238985121,3.67394031065145e-22,-5.04437238985121,-350.439642439577,19.3796234570171,0
10.115309715271,44.4799995422363,44.4460411071777,77,-24.2283000946045,-0.849999964237213,-7.92524766921997,19.470785544985,3.00000010611257e-06,22.3836878353659,16,-4.24350911515665,3.67394031065145e-22,-4.24350911515665,-346.982551161788,19.7392897489018,0
10.1956784725189,44.4699974060059,44.4460411071777,79,-24.2283000946045,-0.409999996423721,-7.92524766921997,19.48146147063,3.00000010611257e-06,22.5528339077289,16,-3.61808462822252,3.67394031065145e-22,-3.61808462822252,-348.573736160848,20.0998848269071,0
10.2337529659271,44.4699974060059,44.4460411071777,79,-24.2283000946045,-0.419999986886978,-7.92524766921997,19.4857425689697,3.00000010611257e-06,22.629005008763,16,-3.32350605158455,3.67394031065145e-22,-3.32350605158455,-348.574249267578,20.1000003814697,0
10.2664585113525,44.4699974060059,43.9209480285645,79,-15.2136402130127,-0.419999986886978,-8.10558891296387,19.4857425689697,3.00000010611257e-06,22.6865334255353,16,-3.0720540298322,3.67394031065145e-22,-3.0720540298322,-348.574249267578,20.1000003814697,0
10.2938239574432,44.4599990844727,43.9209480285645,81,-15.2136402130127,0.0799999982118607,-8.10558891296387,19.534852854345,3.00000010611257e-06,22.7360090819665,16,-2.83294181293941,3.67394031065145e-22,-2.83294181293941,-359.584580556621,20.4606757234322,0
10.3395960330963,44.4599990844727,43.9209480285645,81,-15.2136402130127,0.0700000002980232,-8.10558891296387,19.5986919403076,3.00000010611257e-06,22.8261891307117,16,-2.34121229073151,3.67394031065145e-22,-2.34121229073151,-359.869201660156,20.4699993133545,0
10.3950135707855,44.4500007629395,43.9209480285645,82,-15.2136402130127,0.560000002384186,-8.10558891296387,19.7113079315133,3.00000010611257e-06,22.8867246311883,16,-1.93140750873273,3.67394031065145e-22,-1.93140750873273,-371.423590161588,20.8452697354639,0
10.4417507648468,44.4599990844727,43.9209480285645,82,-15.2136402130127,0.550000011920929,-8.10558891296387,19.7156925201416,3.00000010611257e-06,22.9219775924778,16,-1.61316564403588,3.67394031065145e-22,-1.61316564403588,-371.569244384766,20.8500003814697,0
10.4773316383362,44.4599990844727,43.9209480285645,84,-15.2136402130127,1.10000002384186,-8.10558891296387,19.8191921814291,3.00000010611257e-06,22.9607500930774,16,-1.24558538847216,3.67394031065145e-22,-1.24558538847216,-382.049582810491,21.2066668697515,0
10.5350708961487,44.4699974060059,43.9209480285645,84,-15.2136402130127,1.0900000333786,-8.10558891296387,19.8244132995605,3.00000010611257e-06,23.0088687422182,16,-0.740843134596774,3.67394031065145e-22,-0.740843134596774,-382.441345214844,21.2199993133545,0
10.592755317688,44.4799995422363,43.9209480285645,86,-15.2136402130127,1.68999993801117,-8.10558891296387,19.9269142938439,3.00000010611257e-06,23.034640623065,16,-0.393052808189565,3.67394031065145e-22,-0.393052808189565,-392.694341656669,21.5990787614005,0
10.6700060367584,44.4899978637695,43.9209480285645,88,-15.2136402130127,2.30999994277954,-8.10558891296387,19.9611931951325,3.00000010611257e-06,23.0583495917761,16,0.45277333354795,3.67394031065145e-22,0.45277333354795,-397.09249026446,21.9795723527168,0
10.7508804798126,44.5,43.3571128845215,88,-0.169818073511124,2.3199999332428,-7.88992309570313,19.9709739685059,3.00000010611257e-06,23.0631776618447,16,1.07095038949663,3.67394031065145e-22,1.07095038949663,-397.097412109375,21.9799995422363,0
10.7866744995117,44.5,43.3571128845215,89,-0.169818073511124,2.90999984741211,-7.88992309570313,19.9097667060673,3.00000010611257e-06,23.0575066540881,16,1.4445287073859,3.67394031065145e-22,1.4445287073859,-390.645059180779,22.3579087089847,0
10.8165595531464,44.5200004577637,43.3571128845215,89,-0.169818073511124,2.90999984741211,-7.88992309570313,19.9060935974121,3.00000010611257e-06,23.0355376622187,16,1.82275820954648,3.67394031065145e-22,1.82275820954648,-390.609375,22.3599987030029,0
10.8735136985779,44.5399971008301,43.3571128845215,91,-0.169818073511124,3.37999987602234,-7.88992309570313,19.8824142388506,3.00000010611257e-06,22.9913813982143,16,2.42425658899598,3.67394031065145e-22,2.42425658899598,-387.971133262751,22.7280026778846,0
10.9312934875488,44.5599975585938,43.3571128845215,91,-0.169818073511124,3.37999987602234,-7.88992309570313,19.8795680999756,3.00000010611257e-06,22.9554590625193,16,2.85390488301759,3.67394031065145e-22,2.85390488301759,-387.956817626953,22.7299995422363,0
10.9936656951904,44.5900001525879,43.811393737793,93,6.83161783218384,3.76999998092651,-7.00048685073853,19.9133600770265,3.00000010611257e-06,22.8833105359696,16,3.44121702374191,3.67394031065145e-22,3.44121702374191,-391.454105195134,23.0897619385567,0
11.0127830505371,44.6199989318848,43.811393737793,93,6.83161783218384,3.76999998092651,-7.00048685073853,19.9145641326904,3.00000010611257e-06,22.8340182072323,16,3.7111035220033,3.67394031065145e-22,3.7111035220033,-391.456420898438,23.0900001525879,0
11.079204082489,44.6399993896484,43.811393737793,95,6.83161783218384,4,-7.00048685073853,19.843128449877,3.00000010611257e-06,22.701601909453,16,4.37069567310656,3.67394031065145e-22,4.37069567310656,-383.965260214642,23.434301681419,0
11.1503927707672,44.6699981689453,43.811393737793,96,6.83161783218384,3.99000000953674,-7.00048685073853,19.7626446164525,3.00000010611257e-06,22.5550166832053,16,4.98780041917398,3.67394031065145e-22,4.98780041917398,-372.625001384801,23.7895994602919,0
11.2137327194214,44.689998626709,43.811393737793,96,6.83161783218384,4.17999982833862,-7.00048685073853,19.7261219024658,3.00000010611257e-06,22.3713451711679,16,5.65124800026698,3.67394031065145e-22,5.65124800026698,-372.612182617188,23.7899990081787,0
11.2925343513489,44.7000007629395,43.811393737793,98,6.83161783218384,4.40000009536743,-7.00048685073853,19.7828819786304,3.00000010611257e-06,22.1581291627737,16,6.3338647268479,3.67394031065145e-22,6.3338647268479,-378.897160131715,24.1197429823583,0
11.3195431232452,44.7000007629395,43.811393737793,98,6.83161783218384,4.3899998664856,-7.00048685073853,19.7890205383301,3.00000010611257e-06,22.0779144271962,16,6.57358559157849,3.67394031065145e-22,6.57358559157849,-378.902038574219,24.1199989318848,0
11.3763000965118,44.7099990844727,41.8935394287109,100,17.6944732666016,4.69000005722046,-5.46712207794189,19.8733262617804,3.00000010611257e-06,21.8838905422045,16,7.12233835934264,3.67394031065145e-22,7.12233835934264,-387.372897594696,24.4346750386268,0
11.43301653862,44.7099990844727,41.8935394287109,100,17.6944732666016,4.69000005722046,-5.46712207794189,19.8751621246338,3.00000010611257e-06,21.7321374101256,16,7.48993656118404,3.67394031065145e-22,7.48993656118404,-387.516204833984,24.439998626709,0
11.4763467311859,44.7199974060059,41.8935394287109,101,17.6944732666016,4.96000003814697,-5.46712207794189,19.9408557928781,3.00000010611257e-06,21.4991628281825,16,7.99932854568097,3.67394031065145e-22,7.99932854568097,-394.419496170347,24.7200567374622,0
11.509387254715,44.7199974060059,41.8935394287109,101,17.6944732666016,4.96999979019165,-5.46712207794189,19.9466457366943,3.00000010611257e-06,21.3252315593945,16,8.34997515507126,3.67394031065145e-22,8.34997515507126,-394.664581298828,24.7299995422363,0
11.5828275680542,44.7299995422363,41.8935394287109,103,17.6944732666016,5.25999975204468,-5.46712207794189,20.0008624635862,3.00000010611257e-06,20.9921893129421,16,8.97919168027705,3.67394031065145e-22,8.97919168027705,-401.099970061132,25.0078104368379,0
11.6570372581482,44.7399978637695,41.8935394287109,103,17.6944732666016,5.26999998092651,-5.46712207794189,20.0115070343018,3.00000010611257e-06,20.6264202514636,16,9.58726700870449,3.67394031065145e-22,9.58726700870449,-401.150695800781,25.0100002288818,0
11.6938161849976,44.7599983215332,41.8935394287109,105,17.6944732666016,5.56999969482422,-5.46712207794189,20.0224836495084,3.00000010611257e-06,20.4373111256075,16,9.88402932845299,3.67394031065145e-22,9.88402932845299,-403.125066507878,25.2476336689672,0
11.7497012615204,44.7599983215332,42.8588104248047,105,29.8833713531494,5.58999967575073,-4.61640977859497,19.9920754454762,3.00000010611257e-06,20.1464709535359,16,10.32473731248,3.67394031065145e-22,10.32473731248,-403.227813720703,25.2600002288818,0
11.8088374137878,44.7799987792969,42.8588104248047,106,29.8833713531494,5.80999994277954,-4.61640977859497,19.9016025082714,3.00000010611257e-06,19.8352046026074,16,10.7792819869064,3.67394031065145e-22,10.7792819869064,-389.872113846066,25.49981947972,0
11.8156127929688,44.7799987792969,42.8588104248047,106,29.8833713531494,5.80999994277954,-4.61640977859497,19.8986206054688,3.00000010611257e-06,19.7490864694525,16,10.8949868786431,3.67394031065145e-22,10.8949868786431,-389.862060546875,25.5,0
11.892721414566,44.8099975585938,42.8588104248047,108,29.8833713531494,6.04999971389771,-4.61640977859497,19.9357770405551,3.00000010611257e-06,19.167462187504,16,11.6460958504747,3.67394031065145e-22,11.6460958504747,-393.658513474366,25.7197381925008,0
11.9244432449341,44.8099975585938,42.8588104248047,108,29.8833713531494,6.04999971389771,-4.61640977859497,19.9366302490234,3.00000010611257e-06,19.0330281919365,16,11.809927445983,3.67394031065145e-22,11.809927445983,-393.663024902344,25.7199993133545,0
11.9446308612823,44.8199996948242,42.8588104248047,108,29.8833713531494,6.03999996185303,-4.61640977859497,19.9366302490234,3.00000010611257e-06,18.8302514694908,16,12.0456803502154,3.67394031065145e-22,12.0456803502154,-393.663024902344,25.7199993133545,0
12.0019040107727,44.8299980163574,42.8588104248047,110,29.8833713531494,6.15000009536743,-4.61640977859497,19.9310290163025,3.00000010611257e-06,18.4281336097294,16,12.4736973886771,3.67394031065145e-22,12.4736973886771,-392.959341161278,25.9377726502269,0
12.0404105186462,44.8400001525879,42.8588104248047,110,29.8833713531494,6.15999984741211,-4.61640977859497,19.9295215606689,3.00000010611257e-06,18.2214589026246,16,12.6792146893315,3.67394031065145e-22,12.6792146893315,-392.9521484375,25.939998626709,0
