datetime,roll_c,roll_m,yaw_c,yaw_m,pitch_c,pitch_m,aspd_m,vx_c,vx_m,vy_c,vy_m,vz_c,vz_m,aspd_error,alt_error,fault
0.00895476341247559,-30.5599994659424,6.43778514862061,-120,-95.81396484375,-1.25,-1.69193923473358,NaN,NaN,NaN,NaN,NaN,NaN,NaN,NaN,NaN,0
0.0576932430267334,-30.5599994659424,6.43778514862061,-120,-95.81396484375,-1.23000001907349,-1.69193923473358,16.8085673740508,-3.00000010611257e-06,-2.37338572474003,-16,-17.4648548081299,-3.67394031065145e-22,-17.4648548081299,-80.810490684464,0.0799668684281408,0
0.0964317321777344,-31.769998550415,6.43778514862061,-120,-95.81396484375,-3.53999996185303,-1.69193923473358,16.8067867277814,-3.00000010611257e-06,-2.22352762227261,-16,-17.4699132536055,-3.67394031065145e-22,-17.4699132536055,-80.644416809082,0.0799999982118607,0
0.152614593505859,-31.769998550415,6.43778514862061,-120,-95.81396484375,-3.5699999332428,-1.69193923473358,16.8064441680908,-3.00000010611257e-06,-2.07111948647506,-16,-17.4800096227768,-3.67394031065145e-22,-17.4800096227768,-80.644416809082,0.0799999982118607,0
0.203367710113525,-33.0499992370605,16.0665798187256,-120,-93.1274261474609,-5.92999982833862,-0.472388863563538,16.9311869680695,-3.00000010611257e-06,-1.92252389581046,-16,-17.5163715322145,-3.67394031065145e-22,-17.5163715322145,-94.7624808598638,0.0998336799398697,0
0.22887396812439,-33.0499992370605,16.0665798187256,-120,-93.1274261474609,-5.94000005722046,-0.472388863563538,17.0335418283323,-3.00000010611257e-06,-1.86401249375064,-16,-17.5394490148632,-3.67394031065145e-22,-17.5394490148632,-94.8808670043945,0.0999999940395355,0
0.275071144104004,-34.0099983215332,16.0665798187256,-120,-93.1274261474609,-8.25,-0.472388863563538,17.1842403411865,-3.00000010611257e-06,-1.77307785860483,-16,-17.5911306298652,-3.67394031065145e-22,-17.5911306298652,-118.104007364761,0.109864067426742,0
0.328413486480713,-34,16.0665798187256,-120,-93.1274261474609,-8.26999950408936,-0.472388863563538,17.1842403411865,-3.00000010611257e-06,-1.73150199939572,-16,-17.6425570649332,-3.67394031065145e-22,-17.6425570649332,-118.424034118652,0.109999999403954,0
0.355781316757202,-34.6499977111816,16.0665798187256,-120,-93.1274261474609,-10.5199995040894,-0.472388863563538,17.4162341063713,-3.00000010611257e-06,-1.73221306417143,-16,-17.6867343020957,-3.67394031065145e-22,-17.6867343020957,-144.07517137486,0.100335114522161,0
0.429174423217773,-34.6399993896484,16.0665798187256,-120,-93.1274261474609,-10.5199995040894,-0.472388863563538,17.4496459960938,-3.00000010611257e-06,-1.76590578283803,-16,-17.7574211197559,-3.67394031065145e-22,-17.7574211197559,-144.964599609375,0.0999999940395355,0
0.458452463150024,-34.8199996948242,16.0665798187256,-121,-93.1274261474609,-12.2399997711182,-0.472388863563538,17.4956782554994,-3.00000010611257e-06,-1.79307173177002,-16,-17.8052063909363,-3.67394031065145e-22,-17.8052063909363,-149.816308796743,0.0905227497184805,0
0.496235609054565,-34.8099975585938,-5.07297563552856,-121,-93.6686782836914,-12.2299995422363,-2.27001690864563,17.5008392333984,-3.00000010611257e-06,-1.83084476279432,-16,-17.8565700656611,-3.67394031065145e-22,-17.8565700656611,-150.083923339844,0.0899999961256981,0
0.595460891723633,-34.8199996948242,-5.07297563552856,-121,-93.6686782836914,-12.6199998855591,-2.27001690864563,17.5134974265772,-3.00000010611257e-06,-1.98702332792663,-16,-17.9461778519587,-3.67394031065145e-22,-17.9461778519587,-151.429103738207,0.0899999961256981,0
0.674714803695679,-34.5099983215332,-5.07297563552856,-121,-93.6686782836914,-10.3499994277954,-2.27001690864563,17.5587868430443,-3.00000010611257e-06,-2.1230489433336,-16,-17.9883017568907,-3.67394031065145e-22,-17.9883017568907,-156.004466051247,0.109492946639065,0
0.706774950027466,-34.4899978637695,-5.07297563552856,-121,-93.6686782836914,-10.3400001525879,-2.27001690864563,17.5612163543701,-3.00000010611257e-06,-2.21230969507765,-16,-18.0102916565182,-3.67394031065145e-22,-18.0102916565182,-156.121643066406,0.109999999403954,0
0.744160652160645,-34.4799995422363,-5.07297563552856,-121,-93.6686782836914,-10.3199996948242,-2.27001690864563,17.5612163543701,-3.00000010611257e-06,-2.30874566876342,-16,-18.0340373505518,-3.67394031065145e-22,-18.0340373505518,-156.121643066406,0.109999999403954,0
0.77157187461853,-33.9599990844727,-5.07297563552856,-121,-93.6686782836914,-8.21000003814697,-2.27001690864563,17.5890206932941,-3.00000010611257e-06,-2.394718224977,-16,-18.0460985272866,-3.67394031065145e-22,-18.0460985272866,-159.435079897285,0.159742383564535,0
0.814507722854614,-33.9500007629395,-5.07297563552856,-121,-93.6686782836914,-8.1899995803833,-2.27001690864563,17.5945224761963,-3.00000010611257e-06,-2.48373645534585,-16,-18.0572290527363,-3.67394031065145e-22,-18.0572290527363,-159.452239990234,0.159999996423721,0
0.906845092773438,-33.3899993896484,-18.5281047821045,-121,-93.0230407714844,-6.00999975204468,-5.2150239944458,17.5495542835291,-3.00000010611257e-06,-2.68343402486482,-16,-18.0800934648255,-3.67394031065145e-22,-18.0800934648255,-154.285358379912,0.239912617414004,0
0.931888103485107,-33.3899993896484,-18.5281047821045,-121,-93.0230407714844,-6.00999975204468,-5.2150239944458,17.542797088623,-3.00000010611257e-06,-2.74793582797195,-16,-18.075414172526,-3.67394031065145e-22,-18.075414172526,-154.279708862305,0.239999994635582,0
0.981380462646484,-32.75,-18.5281047821045,-121,-93.0230407714844,-6.35999965667725,-5.2150239944458,17.6224159404214,-3.00000010611257e-06,-2.91627495718473,-16,-18.0751982190854,-3.67394031065145e-22,-18.0751982190854,-162.366412388635,0.349737685981042,0
1.03272843360901,-32.75,-18.5281047821045,-121,-93.0230407714844,-6.35999965667725,-5.2150239944458,17.6238574981689,-3.00000010611257e-06,-3.0448869479836,-16,-18.0611569348244,-3.67394031065145e-22,-18.0611569348244,-162.3857421875,0.349999994039536,0
1.13987135887146,-31.9699993133545,-18.5281047821045,-121,-93.0230407714844,-7.07999992370605,-5.2150239944458,17.5748961521201,-3.00000010611257e-06,-3.38056037748838,-16,-18.0099285635176,-3.67394031065145e-22,-18.0099285635176,-157.153694069656,0.489243636847654,0
1.19349455833435,-30.9799995422363,-18.5281047821045,-121,-93.0230407714844,-7.83999967575073,-5.2150239944458,17.559703878609,-3.00000010611257e-06,-3.50538744513862,-16,-17.9871294163017,-3.67394031065145e-22,-17.9871294163017,-155.863669706058,0.635543821146198,0
1.22959756851196,-30.9699993133545,-18.5281047821045,-121,-93.0230407714844,-7.84999990463257,-5.2150239944458,17.5363937764819,-3.00000010611257e-06,-3.66435831691618,-16,-17.9509188441469,-3.67394031065145e-22,-17.9509188441469,-155.825042724609,0.639999985694885,0
1.3205304145813,-29.9499988555908,-18.5281047821045,-122,-93.0230407714844,-8.60999965667725,-5.2150239944458,17.5201110839844,-3.00000010611257e-06,-3.97698549147955,-16,-17.8780160393248,-3.67394031065145e-22,-17.8780160393248,-152.01876967627,0.789698647935707,0
1.39455127716064,-28.7399997711182,-21.2624759674072,-122,-95.9053955078125,-9.26999950408936,-5.75887298583984,17.5194950442442,-3.00000010611257e-06,-4.21215860067105,-16,-17.8156195392575,-3.67394031065145e-22,-17.8156195392575,-151.937844913869,0.949647393662657,0
1.42347478866577,-28.7299995422363,-21.2624759674072,-122,-95.9053955078125,-9.26999950408936,-5.75887298583984,17.5193767547607,-3.00000010611257e-06,-4.31526611420935,-16,-17.7867731506686,-3.67394031065145e-22,-17.7867731506686,-151.937683105469,0.949999988079071,0
1.47644281387329,-27.4899997711182,-21.2624759674072,-122,-95.9053955078125,-9.90999984741211,-5.75887298583984,17.4653662695783,-3.00000010611257e-06,-4.52447918753875,-16,-17.7222586134136,-3.67394031065145e-22,-17.7222586134136,-146.524561905435,1.10948495312057,0
1.55116009712219,-27.4699993133545,-21.2624759674072,-122,-95.9053955078125,-9.90999984741211,-5.75887298583984,17.4650707244873,-3.00000010611257e-06,-4.72398094232704,-16,-17.6588026695257,-3.67394031065145e-22,-17.6588026695257,-146.507080078125,1.11000001430511,0
1.59321737289429,-26.1599998474121,-21.2624759674072,-122,-95.9053955078125,-10.5500001907349,-5.75887298583984,17.3849849228613,-3.00000010611257e-06,-4.90489256704535,-16,-17.6010198963246,-3.67394031065145e-22,-17.6010198963246,-134.082597739971,1.26399068686549,0
1.68056225776672,-24.7199993133545,-21.2624759674072,-122,-95.9053955078125,-11.1700000762939,-5.75887298583984,17.2516859118295,-3.00000010611257e-06,-5.22935025830017,-16,-17.4962195989636,-3.67394031065145e-22,-17.4962195989636,-122.325885076595,1.4298567553244,0
1.75255489349365,-24.7099990844727,-21.2624759674072,-122,-95.9053955078125,-11.1700000762939,-5.75887298583984,17.2231578826904,-3.00000010611257e-06,-5.43538378600394,-16,-17.432668036728,-3.67394031065145e-22,-17.432668036728,-122.315788269043,1.42999994754791,0
1.79880404472351,-23.2299995422363,-22.1486797332764,-122,-101.61457824707,-11.7799997329712,-7.90377187728882,17.1694893747055,-3.00000010611257e-06,-5.64900875196359,-16,-17.3619340601874,-3.67394031065145e-22,-17.3619340601874,-116.557113176295,1.59930480057084,0
1.84273648262024,-23.2199993133545,-22.1486797332764,-122,-101.61457824707,-11.7699995040894,-7.90377187728882,17.1843994740724,-3.00000010611257e-06,-5.80348748322957,-16,-17.3177872587595,-3.67394031065145e-22,-17.3177872587595,-118.580493150555,1.77946980278479,0
1.91750741004944,-21.689998626709,-22.1486797332764,-122,-101.61457824707,-12.3499994277954,-7.90377187728882,17.1858654022217,-3.00000010611257e-06,-6.0928636037015,-16,-17.2263139966313,-3.67394031065145e-22,-17.2263139966313,-118.586540222168,1.77999997138977,0
1.97972440719604,-20.0699996948242,-22.1486797332764,-122,-101.61457824707,-12.7699995040894,-7.90377187728882,17.1280168767734,-3.00000010611257e-06,-6.29972578345984,-16,-17.1573372061427,-3.67394031065145e-22,-17.1573372061427,-112.432717060199,1.95834029985051,0
2.0281400680542,-20.0599994659424,-22.1486797332764,-122,-101.61457824707,-12.7699995040894,-7.90377187728882,17.1237545013428,-3.00000010611257e-06,-6.42501371059682,-16,-17.1183635461065,-3.67394031065145e-22,-17.1183635461065,-112.375450134277,1.95999991893768,0
2.0797746181488,-18.6499996185303,-22.1486797332764,-122,-101.61457824707,-13.2999992370605,-7.90377187728882,17.070264999549,-3.00000010611257e-06,-6.66741682521212,-16,-17.0438181988753,-3.67394031065145e-22,-17.0438181988753,-105.991355238549,2.15444632133545,0
2.14087963104248,-18.6299991607666,-22.9166564941406,-122,-104.307510375977,-13.2999992370605,-9.48891544342041,16.9643722564609,-3.00000010611257e-06,-6.84555129922686,-16,-16.9852293776094,-3.67394031065145e-22,-16.9852293776094,-105.809020996094,2.15999984741211,0
2.19024300575256,-17.0900001525879,-22.9166564941406,-122,-104.307510375977,-13.7999992370605,-9.48891544342041,16.9148559570313,-3.00000010611257e-06,-6.99346386545237,-16,-16.9337438481459,-3.67394031065145e-22,-16.9337438481459,-91.5353057791113,2.36927107121196,0
2.22170639038086,-17.0799999237061,-22.9166564941406,-122,-104.307510375977,-13.8099994659424,-9.48891544342041,16.9148559570313,-3.00000010611257e-06,-7.08252665330208,-16,-16.8984137379534,-3.67394031065145e-22,-16.8984137379534,-91.485595703125,2.36999988555908,0
2.31888723373413,-15.6499996185303,-22.9166564941406,-122,-104.307510375977,-14.4099998474121,-9.48891544342041,16.7610300826236,-3.00000010611257e-06,-7.35004801267346,-16,-16.7814982233945,-3.67394031065145e-22,-16.7814982233945,-75.8480582336982,2.59952881935082,0
2.37859630584717,-14.3899993896484,-22.9166564941406,-122,-104.307510375977,-15.0199995040894,-9.48891544342041,16.6096001511428,-3.00000010611257e-06,-7.51988961057927,-16,-16.7158949109482,-3.67394031065145e-22,-16.7158949109482,-60.9484135976507,2.84514652730261,0
2.42547607421875,-14.3800001144409,-22.9166564941406,-122,-104.307510375977,-15.0299997329712,-9.48891544342041,16.6065406799316,-3.00000010611257e-06,-7.62720260067432,-16,-16.6759666160158,-3.67394031065145e-22,-16.6759666160158,-60.6540679931641,2.84999990463257,0
2.4929473400116,-13.0299997329712,-22.9166564941406,-122,-104.307510375977,-15.5099992752075,-9.48891544342041,16.5821865199718,-3.00000010611257e-06,-7.83030211681887,-16,-16.603881959331,-3.67394031065145e-22,-16.603881959331,-57.9305600215897,3.13969605985578,0
2.52792310714722,-13.0199995040894,-22.9166564941406,-122,-104.307510375977,-15.5099992752075,-9.48891544342041,16.5792770385742,-3.00000010611257e-06,-7.90889503850459,-16,-16.5782158690932,-3.67394031065145e-22,-16.5782158690932,-57.9277038574219,3.1399998664856,0
2.58028674125671,-11.6599998474121,-22.9166564941406,-122,-104.307510375977,-15.8899993896484,-9.48891544342041,16.59197101979,-3.00000010611257e-06,-8.07093701259779,-16,-16.526555377007,-3.67394031065145e-22,-16.526555377007,-59.2598760001513,3.43937481605823,0
2.62505698204041,-11.6499996185303,-18.4012203216553,-122,-107.93724822998,-15.8999996185303,-12.065746307373,16.6782543938197,-3.00000010611257e-06,-8.20428936547311,-16,-16.4883565395595,-3.67394031065145e-22,-16.4883565395595,-59.2626571655273,3.43999981880188,0
2.69684839248657,-10.3499994277954,-18.4012203216553,-122,-107.93724822998,-16.1800003051758,-12.065746307373,16.7077674865723,-3.00000010611257e-06,-8.39051480276367,-16,-16.4329307277415,-3.67394031065145e-22,-16.4329307277415,-70.7438144225777,3.74911329359193,0
2.72342705726624,-10.3499994277954,-18.4012203216553,-122,-107.93724822998,-16.1900005340576,-12.065746307373,16.7077674865723,-3.00000010611257e-06,-8.43425412298185,-16,-16.4198741126275,-3.67394031065145e-22,-16.4198741126275,-70.7767486572266,3.75,0
2.77443408966064,-9.19999980926514,-18.4012203216553,-122,-107.93724822998,-16.3699989318848,-12.065746307373,16.7553074265618,-3.00000010611257e-06,-8.56294676108372,-16,-16.3777005591847,-3.67394031065145e-22,-16.3777005591847,-76.1768518636922,4.07539228094127,0
2.8355233669281,-9.1899995803833,-18.4012203216553,-122,-107.93724822998,-16.3799991607666,-12.065746307373,16.7625331878662,-3.00000010611257e-06,-8.65288792749384,-16,-16.3500887793766,-3.67394031065145e-22,-16.3500887793766,-76.2533187866211,4.07999992370605,0
2.8840708732605,-8.15999984741211,-18.4012203216553,-123,-107.93724822998,-16.3799991607666,-12.065746307373,16.78114508431,-3.00000010611257e-06,-8.78750244019411,-16,-16.3141380422168,-3.67394031065145e-22,-16.3141380422168,-78.2074710477096,4.42746930890366,0
2.92316031455994,-8.14999961853027,-18.4012203216553,-123,-107.93724822998,-16.3899993896484,-12.065746307373,16.7822170257568,-3.00000010611257e-06,-8.87233152675605,-16,-16.2914648089912,-3.67394031065145e-22,-16.2914648089912,-78.2217025756836,4.42999982833862,0
2.96291518211365,-7.14999961853027,-18.4012203216553,-123,-107.93724822998,-15.4200000762939,-12.065746307373,16.8602515844603,-3.00000010611257e-06,-8.94934726478531,-16,-16.2688886304221,-3.67394031065145e-22,-16.2688886304221,-86.5137119857547,4.77907641778897,0
2.99953937530518,-7.1399998664856,-13.4379291534424,-123,-110.567993164063,-15.4299993515015,-13.7660913467407,16.8653564453125,-3.00000010611257e-06,-9.01875391574606,-16,-16.2482356348791,-3.67394031065145e-22,-16.2482356348791,-86.53564453125,4.77999973297119,0
3.0854754447937,-6.21999979019165,-13.4379291534424,-123,-110.567993164063,-14.5199995040894,-13.7660913467407,16.869459520441,-3.00000010611257e-06,-9.16602544110148,-16,-16.2078701120185,-3.67394031065145e-22,-16.2078701120185,-86.9811690858937,5.14965696308465,0
3.10521793365479,-6.21999979019165,-13.4379291534424,-123,-110.567993164063,-14.5199995040894,-13.7660913467407,16.869815826416,-3.00000010611257e-06,-9.2335631308968,-16,-16.1894398009494,-3.67394031065145e-22,-16.1894398009494,-86.9815826416016,5.15000009536743,0
3.1610209941864,-5.32999992370605,-13.4379291534424,-123,-110.567993164063,-13.4799995422363,-13.7660913467407,16.9892123862154,-3.00000010611257e-06,-9.32688405030221,-16,-16.1679523558816,-3.67394031065145e-22,-16.1679523558816,-104.148358727371,5.54926928696836,0
3.20193195343018,-5.32999992370605,-13.4379291534424,-123,-110.567993164063,-13.4899997711182,-13.7660913467407,17.0417976379395,-3.00000010611257e-06,-9.38650396041515,-16,-16.1558259148839,-3.67394031065145e-22,-16.1558259148839,-104.179763793945,5.54999971389771,0
3.27934718132019,-4.55999994277954,-13.4379291534424,-123,-110.567993164063,-12.5299997329712,-13.7660913467407,17.0731935570401,-3.00000010611257e-06,-9.53007675922629,-16,-16.132952938027,-3.67394031065145e-22,-16.132952938027,-107.364446077081,5.9496624756585,0
3.3021605014801,-4.55999994277954,-13.4379291534424,-123,-110.567993164063,-12.5299997329712,-13.7660913467407,17.0736713409424,-3.00000010611257e-06,-9.55655899060613,-16,-16.1314621221102,-3.67394031065145e-22,-16.1314621221102,-107.367134094238,5.94999980926514,0
3.41554975509644,-3.85999989509583,-13.4379291534424,-123,-110.567993164063,-11.5799999237061,-13.7660913467407,17.1329212908168,-3.00000010611257e-06,-9.72252029077155,-16,-16.119775942172,-3.67394031065145e-22,-16.119775942172,-113.299824161557,6.35304312074932,0
3.45801782608032,-3.21000003814697,-8.31015777587891,-123,-113.227394104004,-10.6199998855591,-14.817479133606,17.2256090644178,-3.00000010611257e-06,-9.81124613963366,-16,-16.1196207825487,-3.67394031065145e-22,-16.1196207825487,-122.854729367612,6.78048458663482,0
3.53441667556763,-3.21000003814697,-8.31015777587891,-123,-113.227394104004,-10.6199998855591,-14.817479133606,17.2329711914063,-3.00000010611257e-06,-9.90995480220671,-16,-16.1229206749686,-3.67394031065145e-22,-16.1229206749686,-123.297119140625,6.79999971389771,0
3.54914236068726,-3.21000003814697,-8.31015777587891,-123,-113.227394104004,-10.6199998855591,-14.817479133606,17.2329711914063,-3.00000010611257e-06,-9.93447239987488,-16,-16.1263716208189,-3.67394031065145e-22,-16.1263716208189,-123.297119140625,6.79999971389771,0
3.6221616268158,-2.59999990463257,-8.31015777587891,-123,-113.227394104004,-9.65999984741211,-14.817479133606,17.3368273563072,-3.00000010611257e-06,-10.0508133865348,-16,-16.1357093434227,-3.67394031065145e-22,-16.1357093434227,-134.848864557395,7.2396688455628,0
3.69919347763062,-2.02999997138977,-8.31015777587891,-123,-113.227394104004,-8.72000026702881,-14.817479133606,17.4529168602282,-3.00000010611257e-06,-10.1428513618346,-16,-16.1582581327889,-3.67394031065145e-22,-16.1582581327889,-145.739373944677,7.66927763244673,0
3.71416687965393,-2.02999997138977,-8.31015777587891,-123,-113.227394104004,-8.72000026702881,-14.817479133606,17.457576751709,-3.00000010611257e-06,-10.1797499884665,-16,-16.1632900761407,-3.67394031065145e-22,-16.1632900761407,-145.757675170898,7.66999959945679,0
3.77877187728882,-1.49000000953674,-8.31015777587891,-123,-113.227394104004,-7.78999996185303,-14.817479133606,17.6113829218699,-3.00000010611257e-06,-10.2798978608842,-16,-16.1915867988007,-3.67394031065145e-22,-16.1915867988007,-161.35628283515,8.08125832393379,0
3.82818388938904,-1.49000000953674,-5.24577713012695,-123,-114.305374145508,-7.79999971389771,-14.1244707107544,17.6244640350342,-3.00000010611257e-06,-10.3360844997305,-16,-16.2018752230115,-3.67394031065145e-22,-16.2018752230115,-162.455299462883,8.11013470274029,0
3.90254592895508,-1.0699999332428,-5.24577713012695,-123,-114.305374145508,-6.82999992370605,-14.1244707107544,17.8745884852261,-3.00000010611257e-06,-10.4043853679538,-16,-16.2201410620025,-3.67394031065145e-22,-16.2201410620025,-189.370284743162,8.51907122629676,0
3.96455407142639,-0.740000009536743,-5.24577713012695,-123,-114.305374145508,-6.01999998092651,-14.1244707107544,17.8779975190947,-3.00000010611257e-06,-10.4718666337175,-16,-16.2214742582468,-3.67394031065145e-22,-16.2214742582468,-187.79373160475,8.92287482043263,0
3.99614644050598,-0.740000009536743,-5.24577713012695,-123,-114.305374145508,-6.01999998092651,-14.1244707107544,17.8772411346436,-3.00000010611257e-06,-10.5012075269955,-16,-16.2273925279016,-3.67394031065145e-22,-16.2273925279016,-187.72412109375,8.9399995803833,0
4.06020855903625,-0.409999996423721,-5.24577713012695,-123,-114.305374145508,-5.19999980926514,-14.1244707107544,18.020723023533,-3.00000010611257e-06,-10.5687302588605,-16,-16.2405713851636,-3.67394031065145e-22,-16.2405713851636,-202.110746210991,9.3497134333181,0
4.09772300720215,-0.409999996423721,-5.24577713012695,-123,-114.305374145508,-5.19999980926514,-14.1244707107544,18.0212078094482,-3.00000010611257e-06,-10.6021906102717,-16,-16.2481207811068,-3.67394031065145e-22,-16.2481207811068,-202.120788574219,9.34999942779541,0
4.20511198043823,-0.0999999940395355,-5.24577713012695,-123,-114.305374145508,-4.42000007629395,-14.1244707107544,18.1345484064397,-3.00000010611257e-06,-10.7011896367929,-16,-16.2751888577384,-3.67394031065145e-22,-16.2751888577384,-213.908843775665,9.74982144100674,0
4.25996685028076,0.199999988079071,-3.08388233184814,-123,-114.433662414551,-3.64999985694885,-12.1150712966919,18.2638188651853,-3.00000010611257e-06,-10.7467906663371,-16,-16.3088385888437,-3.67394031065145e-22,-16.3088385888437,-226.402787902288,10.1393016587601,0
4.31511640548706,0.199999988079071,-3.08388233184814,-123,-114.433662414551,-3.64999985694885,-12.1150712966919,18.2642517089844,-3.00000010611257e-06,-10.792917191351,-16,-16.3272741889773,-3.67394031065145e-22,-16.3272741889773,-226.425170898438,10.1399993896484,0
4.37054777145386,0.389999985694885,-3.08388233184814,-123,-114.433662414551,-3.01999998092651,-12.1150712966919,18.3023262065613,-3.00000010611257e-06,-10.8191720784346,-16,-16.3459150681277,-3.67394031065145e-22,-16.3459150681277,-233.037799942381,10.5060749966944,0
4.41686797142029,0.389999985694885,-3.08388233184814,-123,-114.433662414551,-3.01999998092651,-12.1150712966919,18.3464711782695,-3.00000010611257e-06,-10.8397943102203,-16,-16.3612356209956,-3.67394031065145e-22,-16.3612356209956,-233.108703613281,10.5100002288818,0
4.45986676216125,0.529999971389771,-3.08388233184814,-123,-114.433662414551,-2.49000000953674,-12.1150712966919,18.4100179654419,-3.00000010611257e-06,-10.8636411644121,-16,-16.3745558924251,-3.67394031065145e-22,-16.3745558924251,-241.058490810108,10.8556110093003,0
4.52118301391602,0.529999971389771,-3.08388233184814,-123,-114.433662414551,-2.49000000953674,-12.1150712966919,18.4115943908691,-3.00000010611257e-06,-10.8694264357141,-16,-16.3943789946551,-3.67394031065145e-22,-16.3943789946551,-241.159439086914,10.8599996566772,0
4.56885457038879,0.519999980926514,-3.08388233184814,-123,-114.433662414551,-2.01999998092651,-12.1150712966919,18.4305826891163,-3.00000010611257e-06,-10.8842286657478,-16,-16.4037612463247,-3.67394031065145e-22,-16.4037612463247,-243.109384632491,11.1347960992533,0
4.62658262252808,0.519999980926514,-3.08388233184814,-123,-114.433662414551,-2.01999998092651,-12.1150712966919,18.4343013763428,-3.00000010611257e-06,-10.8882474031095,-16,-16.4275517298275,-3.67394031065145e-22,-16.4275517298275,-243.430145263672,11.1799993515015,0
4.72939443588257,0.439999997615814,-0.375266760587692,-123,-114.090423583984,-1.53999996185303,-9.29874324798584,18.5435433020365,-3.00000010611257e-06,-10.8880418347832,-16,-16.4566228093518,-3.67394031065145e-22,-16.4566228093518,-256.127381937874,11.4793434243111,0
4.76961135864258,0.349999994039536,-0.375266760587692,-123,-114.090423583984,-1.13999998569489,-9.29874324798584,18.6181935004302,-3.00000010611257e-06,-10.8800038206282,-16,-16.4680328127682,-3.67394031065145e-22,-16.4680328127682,-265.370090766416,11.7492839972639,0
4.85220313072205,0.349999994039536,-0.375266760587692,-123,-114.090423583984,-1.13999998569489,-9.29874324798584,18.6539459228516,-3.00000010611257e-06,-10.8701884443649,-16,-16.4742266438108,-3.67394031065145e-22,-16.4742266438108,-265.394592285156,11.75,0
4.88448047637939,0.259999990463257,-0.375266760587692,-123,-114.090423583984,-0.829999983310699,-9.29874324798584,18.6327113817036,-3.00000010611257e-06,-10.8511739202065,-16,-16.4789459901052,-3.67394031065145e-22,-16.4789459901052,-262.954657345456,11.9890721741979,0
4.89916110038757,0.259999990463257,-0.375266760587692,-123,-114.090423583984,-0.829999983310699,-9.29874324798584,18.629451751709,-3.00000010611257e-06,-10.8419445209639,-16,-16.4803808567732,-3.67394031065145e-22,-16.4803808567732,-262.945190429688,11.9899997711182,0
4.93993997573853,0.259999990463257,-0.375266760587692,-123,-114.090423583984,-0.829999983310699,-9.29874324798584,18.629451751709,-3.00000010611257e-06,-10.840142566468,-16,-16.4753321685054,-3.67394031065145e-22,-16.4753321685054,-262.945190429688,11.9899997711182,0
5.00873875617981,0.129999995231628,-0.375266760587692,-123,-114.090423583984,-0.599999964237213,-9.29874324798584,18.6155923794542,-3.00000010611257e-06,-10.8155079944136,-16,-16.4664563147391,-3.67394031065145e-22,-16.4664563147391,-261.517739584679,12.199380768604,0
5.04986214637756,0.129999995231628,0.995557069778442,-123,-115.095077514648,-0.599999964237213,-6.47157907485962,18.5557031189479,-3.00000010611257e-06,-10.8003916478765,-16,-16.456757943739,-3.67394031065145e-22,-16.456757943739,-261.513519287109,12.1999998092651,0
5.09006714820862,0,0.995557069778442,-123,-115.095077514648,-0.479999989271164,-6.47157907485962,18.5487422943115,-3.00000010611257e-06,-10.7954498141736,-16,-16.4416465103317,-3.67394031065145e-22,-16.4416465103317,-254.885689527221,12.3996546277508,0
5.12839913368225,0,0.995557069778442,-123,-115.095077514648,-0.479999989271164,-6.47157907485962,18.5487422943115,-3.00000010611257e-06,-10.7775310266077,-16,-16.4294910947844,-3.67394031065145e-22,-16.4294910947844,-254.874237060547,12.3999996185303,0
5.15904998779297,-0.0499999970197678,0.995557069778442,-123,-115.095077514648,-0.299999982118607,-6.47157907485962,18.6356869250159,-3.00000010611257e-06,-10.7652925703612,-16,-16.4116547846431,-3.67394031065145e-22,-16.4116547846431,-266.637489760424,12.5597571157492,0
5.226567029953,-0.0499999970197678,0.995557069778442,-123,-115.095077514648,-0.299999982118607,-6.47157907485962,18.6665534973145,-3.00000010611257e-06,-10.7547377347971,-16,-16.3878717118935,-3.67394031065145e-22,-16.3878717118935,-266.655334472656,12.5599994659424,0
5.26822113990784,-0.0499999970197678,0.995557069778442,-123,-115.095077514648,-0.299999982118607,-6.47157907485962,18.5832154006378,-3.00000010611257e-06,-10.7298154561366,-16,-16.3655640489387,-3.67394031065145e-22,-16.3655640489387,-258.270219411716,12.7093047363837,0
5.30404353141785,-0.0299999993294477,0.995557069778442,-123,-115.095077514648,-0.199999988079071,-6.47157907485962,18.582311630249,-3.00000010611257e-06,-10.719228990686,-16,-16.3399755159094,-3.67394031065145e-22,-16.3399755159094,-258.231170654297,12.710000038147,0
5.36506271362305,-0.0299999993294477,0.174346819519997,-123,-115.122589111328,-0.199999988079071,-4.83295869827271,18.582311630249,-3.00000010611257e-06,-10.7095227180206,-16,-16.3091535589636,-3.67394031065145e-22,-16.3091535589636,-258.231170654297,12.710000038147,0
5.40368485450745,0,0.174346819519997,-123,-115.122589111328,-0.179999992251396,-4.83295869827271,18.4935554799236,-3.00000010611257e-06,-10.6784091879185,-16,-16.2748283597465,-3.67394031065145e-22,-16.2748283597465,-248.617515802632,12.8395765846887,0
5.42122626304626,0,0.174346819519997,-123,-115.122589111328,-0.179999992251396,-4.83295869827271,18.485860824585,-3.00000010611257e-06,-10.6688233691394,-16,-16.2608290702318,-3.67394031065145e-22,-16.2608290702318,-248.586090087891,12.8400001525879,0
5.50370621681213,-0.00999999977648258,0.174346819519997,-123,-115.122589111328,-0.229999989271164,-4.83295869827271,18.3734492911852,-3.00000010611257e-06,-10.642172171161,-16,-16.1914573432987,-3.67394031065145e-22,-16.1914573432987,-236.78748214184,12.9467815330997,0
5.52525973320007,-0.00999999977648258,0.174346819519997,-123,-115.122589111328,-0.229999989271164,-4.83295869827271,18.3643188476563,-3.00000010611257e-06,-10.63040685864,-16,-16.1751485323471,-3.67394031065145e-22,-16.1751485323471,-236.431884765625,12.9499998092651,0
5.62992572784424,0,0.174346819519997,-123,-115.122589111328,-0.310000002384186,-4.83295869827271,18.2653089994697,-3.00000010611257e-06,-10.5837439771621,-16,-16.089803429879,-3.67394031065145e-22,-16.089803429879,-226.051058990777,13.0498753021979,0
5.69573450088501,0.0499999970197678,0.818714499473572,-123,-114.517883300781,-0.349999994039536,-3.6790783405304,18.1769623548984,-3.00000010611257e-06,-10.5227381388633,-16,-16.0277731288688,-3.67394031065145e-22,-16.0277731288688,-217.007677458971,13.1297655756929,0
5.7247052192688,0.0499999970197678,0.818714499473572,-123,-114.517883300781,-0.349999994039536,-3.6790783405304,18.1698112487793,-3.00000010611257e-06,-10.5052629935661,-16,-16.0096938641535,-3.67394031065145e-22,-16.0096938641535,-216.98112487793,13.1300001144409,0
5.81028842926025,-0.0599999986588955,0.818714499473572,-123,-114.517883300781,-0.469999998807907,-3.6790783405304,18.0620517903486,-3.00000010611257e-06,-10.466290002977,-16,-15.9406448880042,-3.67394031065145e-22,-15.9406448880042,-205.471570841599,13.2098164606176,0
5.83472371101379,-0.0599999986588955,0.818714499473572,-123,-114.517883300781,-0.469999998807907,-3.6790783405304,18.0544509887695,-3.00000010611257e-06,-10.4547994394248,-16,-15.923334625241,-3.67394031065145e-22,-15.923334625241,-205.445098876953,13.210000038147,0
5.91355085372925,-0.0700000002980232,0.818714499473572,-123,-114.517883300781,-0.560000002384186,-3.6790783405304,17.9083333616926,-3.00000010611257e-06,-10.3808379948987,-16,-15.8575775695469,-3.67394031065145e-22,-15.8575775695469,-189.562703305244,13.2898374041407,0
5.93093419075012,-0.0700000002980232,0.818714499473572,-123,-114.517883300781,-0.560000002384186,-3.6790783405304,17.8953037261963,-3.00000010611257e-06,-10.3672187840634,-16,-15.8465097056223,-3.67394031065145e-22,-15.8465097056223,-189.530364990234,13.289999961853,0
5.96347832679749,-0.25,0.818714499473572,-123,-114.517883300781,-0.680000007152557,-3.6790783405304,17.8559998982215,-3.00000010611257e-06,-10.3248951650347,-16,-15.8018761133466,-3.67394031065145e-22,-15.8018761133466,-184.157844804339,13.3584197127658,0
6.04762196540833,-0.25,0.818714499473572,-123,-114.517883300781,-0.680000007152557,-3.6790783405304,17.7062257189887,-3.00000010611257e-06,-10.2769031816096,-16,-15.7363839578372,-3.67394031065145e-22,-15.7363839578372,-184.033782958984,13.3599996566772,0
6.07360792160034,-0.280000001192093,0.818714499473572,-123,-114.517883300781,-0.75,-3.6790783405304,17.6988124847412,-3.00000010611257e-06,-10.245982168023,-16,-15.7034295050083,-3.67394031065145e-22,-15.7034295050083,-170.160477610402,13.4286182963394,0
6.13212943077087,-0.280000001192093,0.818714499473572,-123,-114.517883300781,-0.75,-3.6790783405304,17.6988124847412,-3.00000010611257e-06,-10.2131293821392,-16,-15.66677009014,-3.67394031065145e-22,-15.66677009014,-169.881256103516,13.4299993515015,0
6.18370389938354,-0.379999995231628,0.818714499473572,-123,-114.517883300781,-0.799999952316284,-3.6790783405304,17.5768845526951,-3.00000010611257e-06,-10.1701015825805,-16,-15.6220886737373,-3.67394031065145e-22,-15.6220886737373,-156.652607989294,13.499760745016,0
6.26751947402954,-0.519999980926514,2.71246218681335,-123,-113.624694824219,-0.889999985694885,-2.80455756187439,17.4182299447252,-3.00000010611257e-06,-10.1038372115205,-16,-15.5597761260663,-3.67394031065145e-22,-15.5597761260663,-141.40937246161,13.5798521955396,0
6.30752730369568,-0.519999980926514,2.71246218681335,-123,-113.624694824219,-0.889999985694885,-2.80455756187439,17.4138126373291,-3.00000010611257e-06,-10.0711978074483,-16,-15.5323379124096,-3.67394031065145e-22,-15.5323379124096,-141.381256103516,13.5799999237061,0
6.3350977897644,-0.519999980926514,2.71246218681335,-123,-113.624694824219,-0.889999985694885,-2.80455756187439,17.4138126373291,-3.00000010611257e-06,-10.0531641595346,-16,-15.5174735841588,-3.67394031065145e-22,-15.5174735841588,-141.381256103516,13.5799999237061,0
6.38224124908447,-0.689999997615814,2.71246218681335,-123,-113.624694824219,-0.969999969005585,-2.80455756187439,17.3479676094673,-3.00000010611257e-06,-10.0079633846986,-16,-15.4842564786419,-3.67394031065145e-22,-15.4842564786419,-132.384541860748,13.6498821224678,0
6.42357921600342,-0.689999997615814,2.71246218681335,-123,-113.624694824219,-0.969999969005585,-2.80455756187439,17.323694229126,-3.00000010611257e-06,-9.9720524717681,-16,-15.4610765726398,-3.67394031065145e-22,-15.4610765726398,-132.369415283203,13.6499996185303,0
6.48895454406738,-0.889999985694885,2.71246218681335,-123,-113.624694824219,-1.05999994277954,-2.80455756187439,17.1723260888157,-3.00000010611257e-06,-9.92724566996924,-16,-15.4230824833277,-3.67394031065145e-22,-15.4230824833277,-116.464933935875,13.7181802911351,0
6.52379155158997,-0.889999985694885,2.71246218681335,-123,-113.624694824219,-1.05999994277954,-2.80455756187439,17.1604061126709,-3.00000010611257e-06,-9.90700251451848,-16,-15.3981301413117,-3.67394031065145e-22,-15.3981301413117,-116.04061126709,13.7199993133545,0
6.59856486320496,-0.949999988079071,2.71246218681335,-123,-113.624694824219,-1.23000001907349,-2.80455756187439,17.0347323627825,-3.00000010611257e-06,-9.88761067066219,-16,-15.3377297199364,-3.67394031065145e-22,-15.3377297199364,-103.079316814475,13.779851334,0
6.62317609786987,-0.949999988079071,2.71246218681335,-123,-113.624694824219,-1.23000001907349,-2.80455756187439,17.0304718017578,-3.00000010611257e-06,-9.87808799602215,-16,-15.3226404541129,-3.67394031065145e-22,-15.3226404541129,-103.047180175781,13.7799997329712,0
6.68833923339844,-0.930000007152557,2.71246218681335,-123,-113.624694824219,-1.30999994277954,-2.80455756187439,16.9327739468714,-3.00000010611257e-06,-9.84788595993665,-16,-15.284793360794,-3.67394031065145e-22,-15.284793360794,-92.390485479034,13.8298845427296,0
6.71921372413635,-0.930000007152557,-0.320396065711975,-123,-113.055740356445,-1.30999994277954,-2.09390473365784,16.9236583709717,-3.00000010611257e-06,-9.84030921162148,-16,-15.258521900818,-3.67394031065145e-22,-15.258521900818,-92.365837097168,13.8299999237061,0
6.81012845039368,-0.839999973773956,-0.320396065711975,-123,-113.055740356445,-1.45999991893768,-2.09390473365784,16.8360092552372,-3.00000010611257e-06,-9.82353943857216,-16,-15.2025786689934,-3.67394031065145e-22,-15.2025786689934,-83.011451260119,13.8897192311047,0
6.83555054664612,-0.839999973773956,-0.320396065711975,-123,-113.055740356445,-1.45999991893768,-2.09390473365784,16.8296756744385,-3.00000010611257e-06,-9.82035647058799,-16,-15.1881045195031,-3.67394031065145e-22,-15.1881045195031,-82.9675674438477,13.8899993896484,0
6.87806081771851,-0.75,-0.320396065711975,-123,-113.055740356445,-1.50999999046326,-2.09390473365784,16.7625695126193,-3.00000010611257e-06,-9.82387732815984,-16,-15.1536197669722,-3.67394031065145e-22,-15.1536197669722,-72.9750755323253,13.9379954647743,0
6.92951726913452,-0.75,-0.320396065711975,-123,-113.055740356445,-1.50999999046326,-2.09390473365784,16.7255783081055,-3.00000010611257e-06,-9.82127086312708,-16,-15.1275530657672,-3.67394031065145e-22,-15.1275530657672,-72.5578308105469,13.9399995803833,0
6.97186803817749,-0.599999964237213,-0.320396065711975,-123,-113.055740356445,-1.45999991893768,-2.09390473365784,16.7882509208667,-3.00000010611257e-06,-9.82103164728288,-16,-15.0976260226961,-3.67394031065145e-22,-15.0976260226961,-80.4420459956104,13.9899321178226,0
7.02483248710632,-0.599999964237213,-0.320396065711975,-123,-113.055740356445,-1.45999991893768,-2.09390473365784,16.8045272827148,-3.00000010611257e-06,-9.80703816448308,-16,-15.0716076373624,-3.67394031065145e-22,-15.0716076373624,-80.4527282714844,13.9899997711182,0
7.08174180984497,-0.529999971389771,-0.320396065711975,-123,-113.055740356445,-1.5,-2.09390473365784,16.7115868381011,-3.00000010611257e-06,-9.79546589758361,-16,-15.0495259430719,-3.67394031065145e-22,-15.0495259430719,-67.8195376117591,14.0298674928385,0
7.12946200370789,-0.529999971389771,0.749688684940338,-123,-112.967445373535,-1.5,-1.81754767894745,16.6777763366699,-3.00000010611257e-06,-9.78291734439402,-16,-15.0342918839068,-3.67394031065145e-22,-15.0342918839068,-67.7776336669922,14.0299997329712,0
7.18655896186829,-0.539999961853027,0.749688684940338,-123,-112.967445373535,-1.51999998092651,-1.81754767894745,16.5683228245826,-3.00000010611257e-06,-9.77411085898039,-16,-15.0145015811153,-3.67394031065145e-22,-15.0145015811153,-56.4716175981011,14.0695830578441,0
7.24668288230896,-0.539999961853027,0.749688684940338,-123,-112.967445373535,-1.51999998092651,-1.81754767894745,16.5635261535645,-3.00000010611257e-06,-9.75339005116915,-16,-14.9876834019351,-3.67394031065145e-22,-14.9876834019351,-56.3526153564453,14.0699996948242,0
7.28828096389771,-0.539999961853027,0.749688684940338,-123,-112.967445373535,-1.68999993801117,-1.81754767894745,16.2986979936758,-3.00000010611257e-06,-9.74406733584082,-16,-14.9728111428777,-3.67394031065145e-22,-14.9728111428777,-28.9135337336183,14.0999766756537,0
7.3891270160675,-0.509999990463257,0.749688684940338,-123,-112.967445373535,-1.87999999523163,-1.81754767894745,16.101247677607,-3.00000010611257e-06,-9.71713293733703,-16,-14.9330619372704,-3.67394031065145e-22,-14.9330619372704,-9.85133265569785,14.1496710563199,0
7.42447566986084,-0.509999990463257,0.749688684940338,-123,-112.967445373535,-1.87999999523163,-1.81754767894745,16.0972537994385,-3.00000010611257e-06,-9.71625588037311,-16,-14.9174596185755,-3.67394031065145e-22,-14.9174596185755,-9.72537994384766,14.1499996185303,0
7.50260663032532,-0.519999980926514,1.11656367778778,-123,-113.520614624023,-1.95999991893768,-2.37088108062744,16.0602528217055,-3.00000010611257e-06,-9.70116577999736,-16,-14.8914696570447,-3.67394031065145e-22,-14.8914696570447,-5.68257908985603,14.2199099946983,0
7.5327365398407,-0.519999980926514,1.11656367778778,-123,-113.520614624023,-1.95999991893768,-2.37088108062744,16.0567741394043,-3.00000010611257e-06,-9.69492351395103,-16,-14.8877618189259,-3.67394031065145e-22,-14.8877618189259,-5.67741394042969,14.2199993133545,0
7.57303309440613,-0.539999961853027,1.11656367778778,-123,-113.520614624023,-1.93999993801117,-2.37088108062744,16.0595500234661,-3.00000010611257e-06,-9.68977735135474,-16,-14.8688067449249,-3.67394031065145e-22,-14.8688067449249,-5.96962043232757,14.2890091225945,0
7.62835550308228,-0.539999961853027,1.11656367778778,-123,-113.520614624023,-1.93999993801117,-2.37088108062744,16.0597381591797,-3.00000010611257e-06,-9.68284598928462,-16,-14.8591116637167,-3.67394031065145e-22,-14.8591116637167,-5.97381591796875,14.289999961853,0
7.69976735115051,-0.449999988079071,1.11656367778778,-123,-113.520614624023,-1.9099999666214,-2.37088108062744,16.0505837015682,-3.00000010611257e-06,-9.68431177265453,-16,-14.8357438545072,-3.67394031065145e-22,-14.8357438545072,-5.03193624094859,14.3598322530584,0
7.73220133781433,-0.449999988079071,1.11656367778778,-123,-113.520614624023,-1.9099999666214,-2.37088108062744,16.0502967834473,-3.00000010611257e-06,-9.68906687623002,-16,-14.8344422278302,-3.67394031065145e-22,-14.8344422278302,-5.02967834472656,14.3599996566772,0
7.75855588912964,-0.429999977350235,1.11656367778778,-123,-113.520614624023,-1.74000000953674,-2.37088108062744,16.1081009910629,-3.00000010611257e-06,-9.68636174453148,-16,-14.8257254005308,-3.67394031065145e-22,-14.8257254005308,-11.5841865943646,14.4494285909438,0
7.79906606674194,-0.429999977350235,0.307910680770874,-123,-113.345497131348,-1.74000000953674,-2.55329132080078,16.1162605285645,-3.00000010611257e-06,-9.68631027840658,-16,-14.8217820086599,-3.67394031065145e-22,-14.8217820086599,-11.6260528564453,14.4499998092651,0
7.86277747154236,-0.329999983310699,0.307910680770874,-123,-113.345497131348,-1.54999995231628,-2.55329132080078,16.2088764027546,-3.00000010611257e-06,-9.68782521359308,-16,-14.815038693977,-3.67394031065145e-22,-14.815038693977,-21.156750709918,14.5297273786359,0
7.91463923454285,-0.329999983310699,0.307910680770874,-123,-113.345497131348,-1.54999995231628,-2.55329132080078,16.211893081665,-3.00000010611257e-06,-9.68547734270678,-16,-14.808175475959,-3.67394031065145e-22,-14.808175475959,-21.1893081665039,14.5299997329712,0
8.01008987426758,-0.319999992847443,0.307910680770874,-123,-113.345497131348,-1.3199999332428,-2.55329132080078,16.2360652073913,-3.00000010611257e-06,-9.68517996134122,-16,-14.7999964922968,-3.67394031065145e-22,-14.7999964922968,-23.792765585703,14.5999513306611,0
8.05350589752197,-0.399999976158142,0.307910680770874,-123,-113.345497131348,-1.14999997615814,-2.55329132080078,16.1949670853421,-3.00000010611257e-06,-9.67640321367343,-16,-14.7980338311724,-3.67394031065145e-22,-14.7980338311724,-18.6260589028549,14.6796109811025,0
8.0841748714447,-0.399999976158142,0.307910680770874,-123,-113.345497131348,-1.14999997615814,-2.55329132080078,16.1860084533691,-3.00000010611257e-06,-9.67060739129958,-16,-14.8036088909149,-3.67394031065145e-22,-14.8036088909149,-18.6008453369141,14.6799993515015,0
8.12555360794067,-0.399999976158142,1.57048869132996,-123,-112.904228210449,-1.14999997615814,-2.49425077438354,16.1860084533691,-3.00000010611257e-06,-9.66421086012153,-16,-14.7979509375318,-3.67394031065145e-22,-14.7979509375318,-18.6008453369141,14.6799993515015,0
8.18176078796387,-0.469999998807907,1.57048869132996,-123,-112.904228210449,-1.02999997138977,-2.49425077438354,16.1339648186278,-3.00000010611257e-06,-9.65501576363181,-16,-14.7976093564181,-3.67394031065145e-22,-14.7976093564181,-12.9614851184597,14.7599087047591,0
8.23469042778015,-0.469999998807907,1.57048869132996,-123,-112.904228210449,-1.02999997138977,-2.49425077438354,16.1295509338379,-3.00000010611257e-06,-9.64454716086862,-16,-14.7972428818752,-3.67394031065145e-22,-14.7972428818752,-12.9550933837891,14.7599992752075,0
8.25446557998657,-0.469999998807907,1.57048869132996,-123,-112.904228210449,-1.02999997138977,-2.49425077438354,16.2243884893612,-3.00000010611257e-06,-9.64600732615987,-16,-14.7974370350122,-3.67394031065145e-22,-14.7974370350122,-12.9550933837891,14.7599992752075,0
8.28223896026611,-0.509999990463257,1.57048869132996,-123,-112.904228210449,-0.829999983310699,-2.49425077438354,16.2325801849365,-3.00000010611257e-06,-9.64141409684813,-16,-14.7963581200822,-3.67394031065145e-22,-14.7963581200822,-23.2293300592534,14.8397764395963,0
8.33031892776489,-0.509999990463257,1.57048869132996,-123,-112.904228210449,-0.829999983310699,-2.49425077438354,16.2325801849365,-3.00000010611257e-06,-9.63210746082044,-16,-14.7971806070567,-3.67394031065145e-22,-14.7971806070567,-23.2580184936523,14.8399991989136,0
8.40560722351074,-0.539999961853027,1.57048869132996,-123,-112.904228210449,-0.610000014305115,-2.49425077438354,16.2606745356758,-3.00000010611257e-06,-9.63421196276648,-16,-14.7893023194034,-3.67394031065145e-22,-14.7893023194034,-26.0682555755753,14.9155140807418,0
8.42323422431946,-0.539999961853027,1.57048869132996,-123,-112.904228210449,-0.610000014305115,-2.49425077438354,16.2623519897461,-3.00000010611257e-06,-9.63254996541354,-16,-14.7943542433679,-3.67394031065145e-22,-14.7943542433679,-26.2351989746094,14.9200000762939,0
8.48446869850159,-0.599999964237213,1.14499044418335,-123,-112.825469970703,-0.419999986886978,-2.29791903495789,16.2612911374263,-3.00000010611257e-06,-9.62494770864915,-16,-14.7927223972574,-3.67394031065145e-22,-14.7927223972574,-26.1130664353002,14.9997914329332,0
8.58461618423462,-0.629999995231628,1.14499044418335,-123,-112.825469970703,-0.280000001192093,-2.29791903495789,16.2557168686618,-3.00000010611257e-06,-9.62422227140152,-16,-14.7881443532006,-3.67394031065145e-22,-14.7881443532006,-25.5428371590537,15.0898479447967,0
8.62955927848816,-0.629999995231628,1.14499044418335,-123,-112.825469970703,-0.280000001192093,-2.29791903495789,16.2554187774658,-3.00000010611257e-06,-9.61709849536766,-16,-14.7856879710892,-3.67394031065145e-22,-14.7856879710892,-25.541877746582,15.0899991989136,0
8.68917012214661,-0.629999995231628,1.14499044418335,-123,-112.825469970703,-0.119999997317791,-2.29791903495789,16.3007245740449,-3.00000010611257e-06,-9.61542438374801,-16,-14.7802434529339,-3.67394031065145e-22,-14.7802434529339,-30.5188007249307,15.1599205562488,0
8.72267150878906,-0.629999995231628,1.14499044418335,-123,-112.825469970703,-0.119999997317791,-2.29791903495789,16.3052444458008,-3.00000010611257e-06,-9.60889405086777,-16,-14.7820875272338,-3.67394031065145e-22,-14.7820875272338,-30.5244445800781,15.1599998474121,0
8.79285049438477,-0.620000004768372,0.613097548484802,-123,-112.616073608398,0.0299999993294477,-1.69285845756531,16.3409802834232,-3.00000010611257e-06,-9.62030311663374,-16,-14.7780719809675,-3.67394031065145e-22,-14.7780719809675,-34.4737110896445,15.2293648059673,0
8.84418702125549,-0.620000004768372,0.613097548484802,-123,-112.616073608398,0.0299999993294477,-1.69285845756531,16.3450984954834,-3.00000010611257e-06,-9.62728224023972,-16,-14.7686208266807,-3.67394031065145e-22,-14.7686208266807,-34.5098495483398,15.2299995422363,0
8.90028810501099,-0.539999961853027,0.613097548484802,-123,-112.616073608398,0.269999980926514,-1.69285845756531,16.5092752507163,-3.00000010611257e-06,-9.64311331367061,-16,-14.7542621713323,-3.67394031065145e-22,-14.7542621713323,-50.9824779886169,15.2868171239955,0
8.93762397766113,-0.539999961853027,0.613097548484802,-123,-112.616073608398,0.269999980926514,-1.69285845756531,16.5190525054932,-3.00000010611257e-06,-9.6478061205761,-16,-14.7551276638189,-3.67394031065145e-22,-14.7551276638189,-51.9052505493164,15.289999961853,0
8.99020743370056,-0.379999995231628,0.613097548484802,-123,-112.616073608398,0.409999996423721,-1.69285845756531,16.5679991648851,-3.00000010611257e-06,-9.65867258876642,-16,-14.7392678593448,-3.67394031065145e-22,-14.7392678593448,-57.2330259739741,15.3298173034724,0
9.06029725074768,-0.379999995231628,0.613097548484802,-123,-112.616073608398,0.409999996423721,-1.69285845756531,16.5725746154785,-3.00000010611257e-06,-9.66518587462145,-16,-14.7216814165878,-3.67394031065145e-22,-14.7216814165878,-57.2574615478516,15.3299999237061,0
9.09179544448853,-0.259999990463257,0.359089285135269,-123,-112.555473327637,0.5,-1.24997615814209,16.5313754927255,-3.00000010611257e-06,-9.66082006210758,-16,-14.7126242632664,-3.67394031065145e-22,-14.7126242632664,-49.5300349695127,15.3699426739988,0
9.13467478752136,-0.259999990463257,0.359089285135269,-123,-112.555473327637,0.5,-1.24997615814209,16.4744379642211,-3.00000010611257e-06,-9.64941536273561,-16,-14.7061992661622,-3.67394031065145e-22,-14.7061992661622,-49.5189666748047,15.3699998855591,0
9.17937159538269,-0.329999983310699,0.359089285135269,-123,-112.555473327637,0.539999961853027,-1.24997615814209,16.4230712190882,-3.00000010611257e-06,-9.63127944633295,-16,-14.708257069292,-3.67394031065145e-22,-14.708257069292,-41.9058280674425,15.3999701640258,0
9.23004055023193,-0.329999983310699,0.359089285135269,-123,-112.555473327637,0.539999961853027,-1.24997615814209,16.4189834594727,-3.00000010611257e-06,-9.60746257010769,-16,-14.7045288254073,-3.67394031065145e-22,-14.7045288254073,-41.8983459472656,15.3999996185303,0
9.29588675498962,-0.529999971389771,0.359089285135269,-123,-112.555473327637,0.489999979734421,-1.24997615814209,16.265102521495,-3.00000010611257e-06,-9.57068580485854,-16,-14.703893433726,-3.67394031065145e-22,-14.703893433726,-26.3502750492405,15.4399582426694,0
9.36566543579102,-0.649999976158142,0.359089285135269,-123,-112.555473327637,0.399999976158142,-1.24997615814209,16.1644009754635,-3.00000010611257e-06,-9.55606647639272,-16,-14.6949599186066,-3.67394031065145e-22,-14.6949599186066,-15.6181832675591,15.4699714338001,0
9.40549564361572,-0.649999976158142,0.359089285135269,-123,-112.555473327637,0.399999976158142,-1.24997615814209,16.1560821533203,-3.00000010611257e-06,-9.55043895275858,-16,-14.6831268965293,-3.67394031065145e-22,-14.6831268965293,-15.6082153320313,15.4699993133545,0
9.43126797676086,-0.649999976158142,0.359089285135269,-123,-112.555473327637,0.399999976158142,-1.24997615814209,16.1560821533203,-3.00000010611257e-06,-9.5444402487356,-16,-14.6753289805222,-3.67394031065145e-22,-14.6753289805222,-15.6082153320313,15.4699993133545,0
9.48780941963196,-0.680000007152557,0.359089285135269,-123,-112.555473327637,0.379999995231628,-1.24997615814209,16.2096272945245,-3.00000010611257e-06,-9.54381732536184,-16,-14.6562456907781,-3.67394031065145e-22,-14.6562456907781,-22.7760843581069,15.4999754937036,0
9.52703905105591,-0.680000007152557,1.10419118404388,-123,-112.263473510742,0.379999995231628,-0.517616987228394,16.227819442749,-3.00000010611257e-06,-9.54846183937813,-16,-14.6486712261136,-3.67394031065145e-22,-14.6486712261136,-22.7819442749023,15.5,0
9.56822538375854,-0.589999973773956,1.10419118404388,-123,-112.263473510742,0.370000004768372,-0.517616987228394,16.2780774305814,-3.00000010611257e-06,-9.55227609431315,-16,-14.630217437769,-3.67394031065145e-22,-14.630217437769,-30.9921710340366,15.5199269322445,0
9.62766456604004,-0.589999973773956,1.10419118404388,-123,-112.263473510742,0.370000004768372,-0.517616987228394,16.2913529751238,-3.00000010611257e-06,-9.56063598080586,-16,-14.6069760234537,-3.67394031065145e-22,-14.6069760234537,-31.0220718383789,15.5199995040894,0
9.68155312538147,-0.399999976158142,1.10419118404388,-123,-112.263473510742,0.340000003576279,-0.517616987228394,16.2623256284063,-3.00000010611257e-06,-9.57024574475012,-16,-14.5891268162598,-3.67394031065145e-22,-14.5891268162598,-25.9757159952236,15.5199995040894,0
9.75828385353088,-0.399999976158142,1.10419118404388,-123,-112.263473510742,0.340000003576279,-0.517616987228394,16.11694249032,-3.00000010611257e-06,-9.57694449509212,-16,-14.5647990242673,-3.67394031065145e-22,-14.5647990242673,-11.056083760042,15.5298432213951,0
9.7845344543457,-0.219999998807907,1.10419118404388,-123,-112.263473510742,0.239999994635582,-0.517616987228394,16.108190536499,-3.00000010611257e-06,-9.5800621966816,-16,-14.5521823237653,-3.67394031065145e-22,-14.5521823237653,-10.8190536499023,15.5299997329712,0
9.82610416412354,-0.219999998807907,1.10419118404388,-123,-112.263473510742,0.239999994635582,-0.517616987228394,16.108190536499,-3.00000010611257e-06,-9.58532977292247,-16,-14.5307653744908,-3.67394031065145e-22,-14.5307653744908,-10.8190536499023,15.5299997329712,0
9.88743710517883,-0.0999999940395355,1.10419118404388,-123,-112.263473510742,0.189999997615814,-0.517616987228394,15.9425508738025,-3.00000010611257e-06,-9.59119060871043,-16,-14.513635075797,-3.67394031065145e-22,-14.513635075797,5.98837750319997,15.5598746509982,0
9.90861582756042,-0.0999999940395355,1.10419118404388,-123,-112.263473510742,0.189999997615814,-0.517616987228394,15.939414024353,-3.00000010611257e-06,-9.5891989913377,-16,-14.5075568459381,-3.67394031065145e-22,-14.5075568459381,6.05859756469727,15.5599994659424,0
9.96483659744263,0.0299999993294477,-0.747876226902008,-123,-110.765411376953,0.179999992251396,-0.239526301622391,16.0174912986361,-3.00000010611257e-06,-9.60204208846963,-16,-14.4875252652985,-3.67394031065145e-22,-14.4875252652985,-1.75621419749113,15.5899280666805,0
10.012729883194,0.0299999993294477,-0.747876226902008,-123,-110.765411376953,0.179999992251396,-0.239526301622391,16.0177478790283,-3.00000010611257e-06,-9.60893383493431,-16,-14.4796018485216,-3.67394031065145e-22,-14.4796018485216,-1.77478790283203,15.5899991989136,0
10.0757284164429,0.229999989271164,-0.747876226902008,-123,-110.765411376953,0.199999988079071,-0.239526301622391,16.1116022606365,-3.00000010611257e-06,-9.6338703952607,-16,-14.4524097340111,-3.67394031065145e-22,-14.4524097340111,-12.1023568647365,15.6199772992332,0
10.1007783412933,0.229999989271164,-0.747876226902008,-123,-110.765411376953,0.199999988079071,-0.239526301622391,16.1211013793945,-3.00000010611257e-06,-9.63632751556841,-16,-14.4419472612794,-3.67394031065145e-22,-14.4419472612794,-12.1101379394531,15.6199998855591,0
10.1636073589325,0.469999998807907,-0.747876226902008,-123,-110.765411376953,0.219999998807907,-0.239526301622391,16.1540582612635,-3.00000010611257e-06,-9.6608967551968,-16,-14.4171851106881,-3.67394031065145e-22,-14.4171851106881,-15.4123947810305,15.6299732338427,0
10.1763458251953,0.469999998807907,-0.747876226902008,-123,-110.765411376953,0.219999998807907,-0.239526301622391,16.1542129516602,-3.00000010611257e-06,-9.66994168922624,-16,-14.4143478625258,-3.67394031065145e-22,-14.4143478625258,-15.4212951660156,15.6300001144409,0
10.2208766937256,0.469999998807907,-0.747876226902008,-123,-110.765411376953,0.219999998807907,-0.239526301622391,16.1542129516602,-3.00000010611257e-06,-9.68829365446019,-16,-14.396735097741,-3.67394031065145e-22,-14.396735097741,-15.4212951660156,15.6300001144409,0
10.3820378780365,0.959999978542328,-1.09564983844757,-123,-110.362884521484,-0.0199999995529652,0.313094913959503,15.8138570181196,-3.00000010611257e-06,-9.71199203253401,-16,-14.347187236349,-3.67394031065145e-22,-14.347187236349,19.6000327641148,15.6300001144409,0
10.4554307460785,0.959999978542328,-1.09564983844757,-123,-110.362884521484,-0.0199999995529652,0.313094913959503,15.8033819198608,-3.00000010611257e-06,-9.71791002158844,-16,-14.3342923439964,-3.67394031065145e-22,-14.3342923439964,19.661808013916,15.6300001144409,0
10.4842507839203,1.0699999332428,-1.09564983844757,-123,-110.362884521484,-0.329999983310699,0.313094913959503,15.4351587942389,-3.00000010611257e-06,-9.71499988746116,-16,-14.3232828639735,-3.67394031065145e-22,-14.3232828639735,59.2307437689439,15.6300001144409,0
10.5239362716675,1.0699999332428,-1.09564983844757,-123,-110.362884521484,-0.329999983310699,0.313094913959503,15.3930950164795,-3.00000010611257e-06,-9.71392976278558,-16,-14.313423915054,-3.67394031065145e-22,-14.313423915054,60.6904983520508,15.6300001144409,0
10.5839221477509,1.17999994754791,-1.09564983844757,-123,-110.362884521484,-0.649999976158142,0.313094913959503,15.2778130330974,-3.00000010611257e-06,-9.72039926288358,-16,-14.296140367536,-3.67394031065145e-22,-14.296140367536,72.7928429834775,15.6499565739353,0
10.6698257923126,1.23000001907349,-2.0092089176178,-123,-110.64134979248,-0.879999995231628,0.240752637386322,15.1195444182368,-3.00000010611257e-06,-9.7207721653697,-16,-14.286601833911,-3.67394031065145e-22,-14.286601833911,88.5989041248822,15.6799166950097,0
10.7007973194122,1.23000001907349,-2.0092089176178,-123,-110.64134979248,-0.879999995231628,0.240752637386322,15.1135749816895,-3.00000010611257e-06,-9.72355825697932,-16,-14.2824652846831,-3.67394031065145e-22,-14.2824652846831,88.6425018310547,15.6799993515015,0
10.7262244224548,1.23000001907349,-2.0092089176178,-123,-110.64134979248,-0.879999995231628,0.240752637386322,15.1135749816895,-3.00000010611257e-06,-9.72904095171945,-16,-14.2752238534512,-3.67394031065145e-22,-14.2752238534512,88.6425018310547,15.6799993515015,0
10.7976810932159,1.29999995231628,-2.0092089176178,-123,-110.64134979248,-1.12000000476837,0.240752637386322,14.9469459076258,-3.00000010611257e-06,-9.74866855081506,-16,-14.2699299648175,-3.67394031065145e-22,-14.2699299648175,106.105642929824,15.7298862923105,0
10.8276951313019,1.29999995231628,-2.0092089176178,-123,-110.64134979248,-1.12000000476837,0.240752637386322,14.9385471343994,-3.00000010611257e-06,-9.75090917476546,-16,-14.2737294320473,-3.67394031065145e-22,-14.2737294320473,106.145286560059,15.7299995422363,0
10.9338490962982,1.50999999046326,-2.0092089176178,-123,-110.64134979248,-1.26999998092651,0.240752637386322,14.9495437892651,-3.00000010611257e-06,-9.80037434649023,-16,-14.262574132223,-3.67394031065145e-22,-14.262574132223,104.912772833103,15.7783202398418,0
10.9856538772583,1.73000001907349,-2.0092089176178,-123,-110.64134979248,-1.23000001907349,0.240752637386322,15.0488005183499,-3.00000010611257e-06,-9.83570334272988,-16,-14.2528603830977,-3.67394031065145e-22,-14.2528603830977,94.2646110757467,15.8398860616669,0
11.0276410579681,1.73000001907349,-2.0092089176178,-123,-110.64134979248,-1.23000001907349,0.240752637386322,15.0575542449951,-3.00000010611257e-06,-9.86473997299145,-16,-14.2496304830839,-3.67394031065145e-22,-14.2496304830839,94.2445755004883,15.8399991989136,0
11.0850713253021,2.07999992370605,-2.0092089176178,-123,-110.64134979248,-1.04999995231628,0.240752637386322,15.2103433760801,-3.00000010611257e-06,-9.90580237930097,-16,-14.2511646170094,-3.67394031065145e-22,-14.2511646170094,76.842757475313,15.8895236863442,0
11.1199858188629,2.07999992370605,-2.0092089176178,-123,-110.64134979248,-1.04999995231628,0.240752637386322,15.2332439422607,-3.00000010611257e-06,-9.94263384903825,-16,-14.2457227595114,-3.67394031065145e-22,-14.2457227595114,76.6756057739258,15.8899993896484,0
11.1974046230316,2.41999983787537,-0.964496791362762,-123,-114.313690185547,-0.699999988079071,-0.174661070108414,15.5150863081324,-3.00000010611257e-06,-9.99971171577744,-16,-14.2630270275046,-3.67394031065145e-22,-14.2630270275046,47.467387691426,15.9499820584823,0
11.2688429355621,2.75999999046326,-0.964496791362762,-123,-114.313690185547,-0.179999992251396,-0.174661070108414,15.8542554297319,-3.00000010611257e-06,-10.0475114310579,-16,-14.2611149455757,-3.67394031065145e-22,-14.2611149455757,13.9977688894301,15.9899311166459,0
11.2917275428772,2.75999999046326,-0.964496791362762,-123,-114.313690185547,-0.179999992251396,-0.174661070108414,15.8605976104736,-3.00000010611257e-06,-10.0635588100053,-16,-14.2649607403491,-3.67394031065145e-22,-14.2649607403491,13.9402389526367,15.9899997711182,0
11.3177902698517,2.75999999046326,-0.964496791362762,-123,-114.313690185547,-0.179999992251396,-0.174661070108414,15.8605976104736,-3.00000010611257e-06,-10.0887641455964,-16,-14.2580410800101,-3.67394031065145e-22,-14.2580410800101,13.9402389526367,15.9899997711182,0
11.3785426616669,3.07999992370605,-0.964496791362762,-123,-114.313690185547,0.179999992251396,-0.174661070108414,16.0176902465295,-3.00000010611257e-06,-10.123652602454,-16,-14.2653627074396,-3.67394031065145e-22,-14.2653627074396,-3.46019894358116,16.0199029120475,0
11.4416525363922,3.07999992370605,-0.964496791362762,-123,-114.313690185547,0.179999992251396,-0.174661070108414,16.0834981232807,-3.00000010611257e-06,-10.1427297631488,-16,-14.271851486198,-3.67394031065145e-22,-14.271851486198,-3.51696014404297,16.0200004577637,0
11.5068845748901,3.27999997138977,-0.964496791362762,-123,-114.313690185547,0.529999971389771,-0.174661070108414,16.1187114715576,-3.00000010611257e-06,-10.1566407549083,-16,-14.2867574574739,-3.67394031065145e-22,-14.2867574574739,-11.6211722464039,16.0394006093375,0
11.5206959247589,3.27999997138977,-0.964496791362762,-123,-114.313690185547,0.529999971389771,-0.174661070108414,16.1187114715576,-3.00000010611257e-06,-10.1583754323195,-16,-14.2953382528961,-3.67394031065145e-22,-14.2953382528961,-11.8711471557617,16.0399990081787,0
11.6057698726654,3.27999997138977,1.69730222225189,-123,-113.851791381836,0.849999964237213,0.142107427120209,16.2735004650733,-3.00000010611257e-06,-10.1475133276524,-16,-14.32221054658,-3.67394031065145e-22,-14.32221054658,-27.7940772400205,16.0399990081787,0
11.6265728473663,3.27999997138977,1.69730222225189,-123,-113.851791381836,0.849999964237213,0.142107427120209,16.2781352996826,-3.00000010611257e-06,-10.1347785158983,-16,-14.3395671115539,-3.67394031065145e-22,-14.3395671115539,-27.8135299682617,16.0399990081787,0
11.6992430686951,3.14999985694885,1.69730222225189,-123,-113.851791381836,1.01999998092651,0.142107427120209,16.2136294558821,-3.00000010611257e-06,-10.0963763906481,-16,-14.3635470234133,-3.67394031065145e-22,-14.3635470234133,-21.0270019858206,16.0200240633689,0
11.7223148345947,3.14999985694885,1.69730222225189,-123,-113.851791381836,1.01999998092651,0.142107427120209,16.2101898193359,-3.00000010611257e-06,-10.0882275887414,-16,-14.3585187180273,-3.67394031065145e-22,-14.3585187180273,-21.0189819335938,16.0200004577637,0
