datetime,roll_c,roll_m,yaw_c,yaw_m,pitch_c,pitch_m,aspd_m,vx_c,vx_m,vy_c,vy_m,vz_c,vz_m,aspd_error,alt_error,fault
0.000460386276245117,41.9500007629395,37.3013114929199,25,-35.5745239257813,-20.0799999237061,-21.0012950897217,NaN,NaN,NaN,NaN,NaN,NaN,NaN,NaN,NaN,0
0.0548248291015625,41.9699974060059,37.3013114929199,26,-35.5745239257813,-20.0799999237061,-21.0012950897217,0,16,18.5187535827898,-3.5527136788005e-15,-9.68791051954665,1.95943496413627e-15,-9.68791051954665,-310.71841541786,17.317086433824,0
0.128183126449585,42.0200004577637,36.2776069641113,26,-27.9716606140137,-20.1000003814697,-20.631799697876,0,16,18.7359310371678,-3.5527136788005e-15,-9.22102030064403,1.95943496413627e-15,-9.22102030064403,-310.863677978516,17.3199996948242,0
0.15466833114624,42.0400009155273,36.2776069641113,26,-27.9716606140137,-20.0900001525879,-20.631799697876,0,16,18.8004588062604,-3.5527136788005e-15,-9.08719216530461,1.95943496413627e-15,-9.08719216530461,-310.863677978516,17.3199996948242,0
0.181470632553101,42.0900001525879,36.2776069641113,27,-27.9716606140137,-20.0699996948242,-20.631799697876,0,16,18.9184947870324,-3.5527136788005e-15,-8.83359983182235,1.95943496413627e-15,-8.83359983182235,-310.863677978516,17.8265195716396,0
0.222724199295044,42.1599998474121,36.2776069641113,27,-27.9716606140137,-20.0299987792969,-20.631799697876,0,16,19.0238977283095,-3.5527136788005e-15,-8.60421725942528,1.95943496413627e-15,-8.60421725942528,-310.863677978516,17.8299999237061,0
0.290668964385986,42.2299995422363,36.2776069641113,27,-27.9716606140137,-20.0799999237061,-20.631799697876,0,16,19.315099577902,-3.5527136788005e-15,-7.98740991105869,1.95943496413627e-15,-7.98740991105869,-355.214801388178,18.3396528361252,0
0.324408531188965,42.2299995422363,36.2776069641113,27,-27.9716606140137,-20.1000003814697,-20.631799697876,0,16,19.3982757159899,-3.5527136788005e-15,-7.80177786901623,1.95943496413627e-15,-7.80177786901623,-355.245025634766,18.3400001525879,0
0.390067338943481,42.2199974060059,36.2776069641113,28,-27.9716606140137,-20.1199989318848,-20.631799697876,0,16,19.5349334658895,-3.5527136788005e-15,-7.42178248120199,1.95943496413627e-15,-7.42178248120199,-355.245025634766,18.8146015551531,0
0.413999557495117,42.2299995422363,36.2776069641113,28,-27.9716606140137,-20.1700000762939,-20.631799697876,0,16,19.5765381140842,-3.5527136788005e-15,-7.26450590571174,1.95943496413627e-15,-7.26450590571174,-355.245025634766,18.8199996948242,0
0.517573356628418,42.25,36.2776069641113,29,-27.9716606140137,-20.2199993133545,-20.631799697876,0,16,19.7000727706188,-3.5527136788005e-15,-6.66124970923709,1.95943496413627e-15,-6.66124970923709,-379.133510769484,19.2798759233655,0
0.580445289611816,42.189998626709,35.7420692443848,29,-21.0286083221436,-20.2399997711182,-19.6274833679199,0,16,19.7857374197596,-3.5527136788005e-15,-6.31355304585177,1.95943496413627e-15,-6.31355304585177,-379.139892578125,19.7592547664377,0
0.648285865783691,42.1399993896484,35.7420692443848,29,-21.0286083221436,-20.3199996948242,-19.6274833679199,0,16,19.8769426711824,-3.5527136788005e-15,-5.95353101860566,1.95943496413627e-15,-5.95353101860566,-379.139892578125,19.7600002288818,0
0.673465251922607,42.0900001525879,35.7420692443848,30,-21.0286083221436,-20.3199996948242,-19.6274833679199,0,16,19.9371116612761,-3.5527136788005e-15,-5.72741427897617,1.95943496413627e-15,-5.72741427897617,-413.027680344605,20.2271167658936,0
0.769482135772705,41.9500007629395,35.7420692443848,31,-21.0286083221436,-20.1299991607666,-19.6274833679199,0,16,20.0354336882856,-3.5527136788005e-15,-5.28539416474317,1.95943496413627e-15,-5.28539416474317,-413.23681640625,20.7098713815339,0
0.797680616378784,40.5900001525879,35.7420692443848,31,-21.0286083221436,-20.0799999237061,-19.6274833679199,0,16,20.0596985761166,-3.5527136788005e-15,-5.1707134797649,1.95943496413627e-15,-5.1707134797649,-413.23681640625,20.7099990844727,0
0.847647666931152,40.2000007629395,35.7420692443848,31,-21.0286083221436,-19.9499988555908,-19.6274833679199,0,16,20.1523466489597,-3.5527136788005e-15,-4.79479593596015,1.95943496413627e-15,-4.79479593596015,-413.23681640625,20.7099990844727,0
0.886590003967285,41.7799987792969,36.9259910583496,31,-16.0560913085938,-19.8599987030029,-21.2510375976563,0,16,20.1888427441452,-3.5527136788005e-15,-4.59299480709669,1.95943496413627e-15,-4.59299480709669,-450.26996033371,21.1753871078085,0
0.91259765625,41.7399978637695,36.9259910583496,31,-16.0560913085938,-19.75,-21.2510375976563,0,16,20.2055738769162,-3.5527136788005e-15,-4.42943016264029,1.95943496413627e-15,-4.42943016264029,-450.637054443359,21.1800003051758,0
0.985904693603516,41.7099990844727,36.9259910583496,32,-16.0560913085938,-19.5599994659424,-21.2510375976563,0,16,20.2014235475932,-3.5527136788005e-15,-4.18427910926301,1.95943496413627e-15,-4.18427910926301,-450.637054443359,21.6771304165548,0
1.03092432022095,41.7000007629395,36.9259910583496,32,-16.0560913085938,-19.4300003051758,-21.2510375976563,0,16,20.1697123107028,-3.5527136788005e-15,-4.02524716028199,1.95943496413627e-15,-4.02524716028199,-450.637054443359,21.6800003051758,0
1.06492710113525,41.7000007629395,36.9259910583496,32,-16.0560913085938,-19.3500003814697,-21.2510375976563,0,16,20.1467912669856,-3.5527136788005e-15,-3.8072116575849,1.95943496413627e-15,-3.8072116575849,-479.291787456629,22.1943811137163,0
1.14661574363708,41.6800003051758,36.9259910583496,33,-16.0560913085938,-19.2999992370605,-21.2510375976563,0,16,20.1715419151884,-3.5527136788005e-15,-3.40462371127091,1.95943496413627e-15,-3.40462371127091,-479.604736328125,22.7563156015488,0
1.21839666366577,41.6499977111816,36.9259910583496,33,-16.0560913085938,-19.1800003051758,-21.2510375976563,0,16,20.2129597026648,-3.5527136788005e-15,-3.01052710644558,1.95943496413627e-15,-3.01052710644558,-479.604736328125,22.7600002288818,0
1.29883790016174,41.6399993896484,36.9259910583496,33,-16.0560913085938,-18.9099998474121,-21.2510375976563,0,16,20.3041371737949,-3.5527136788005e-15,-2.40729109372408,1.95943496413627e-15,-2.40729109372408,-481.072790363765,23.3492310912342,0
1.38630747795105,41.5900001525879,40.733959197998,33,-7.37872266769409,-18.6700000762939,-21.863920211792,0,16,20.4110177257732,-3.5527136788005e-15,-1.69940012336533,1.95943496413627e-15,-1.69940012336533,-481.07470703125,23.9285827897189,0
1.44452810287476,41.5699996948242,40.733959197998,33,-7.37872266769409,-18.5,-21.863920211792,0,16,20.4565410964933,-3.5527136788005e-15,-1.21045348930717,1.95943496413627e-15,-1.21045348930717,-481.07470703125,23.939998626709,0
1.50397539138794,41.5799980163574,40.733959197998,33,-7.37872266769409,-18.2799987792969,-21.863920211792,0,16,20.4666450733897,-3.5527136788005e-15,-0.836582162085145,1.95943496413627e-15,-0.836582162085145,-500.477526278467,24.5251645901356,0
1.54552292823792,41.629997253418,40.733959197998,33,-7.37872266769409,-18.2099990844727,-21.863920211792,0,16,20.4680858192545,-3.5527136788005e-15,-0.56133580745869,1.95943496413627e-15,-0.56133580745869,-500.637817382813,24.5299987792969,0
1.60095047950745,41.7399978637695,40.733959197998,33,-7.37872266769409,-18.3199996948242,-21.863920211792,0,16,20.4600222492283,-3.5527136788005e-15,-0.174436378023995,1.95943496413627e-15,-0.174436378023995,-500.637817382813,25.1236263114979,0
1.63777852058411,41.8099975585938,40.733959197998,33,-7.37872266769409,-18.3899993896484,-21.863920211792,0,16,20.4568163155391,-3.5527136788005e-15,0.107200579114786,1.95943496413627e-15,0.107200579114786,-500.637817382813,25.1399993896484,0
1.69371771812439,41.8999977111816,40.733959197998,33,-7.37872266769409,-18.5499992370605,-21.863920211792,0,16,20.4819796736905,-3.5527136788005e-15,0.543376913731734,1.95943496413627e-15,0.543376913731734,-545.995516309282,25.7496025935427,0
1.78507375717163,40.9899978637695,40.733959197998,33,-7.37872266769409,-18.7999992370605,-21.863920211792,0,16,20.4693652012665,-3.5527136788005e-15,1.07075782550831,1.95943496413627e-15,1.07075782550831,-546.025085449219,26.3798182838709,0
1.831050157547,41.0400009155273,40.7832183837891,33,0.154041290283203,-18.8899993896484,-20.4836578369141,0,16,20.4565355446963,-3.5527136788005e-15,1.3129409699879,1.95943496413627e-15,1.3129409699879,-546.025085449219,26.3799991607666,0
1.90635228157043,39.5400009155273,40.7832183837891,33,0.154041290283203,-19.2299995422363,-20.4836578369141,0,16,20.4826857244423,-3.5527136788005e-15,1.99799256364922,1.95943496413627e-15,1.99799256364922,-556.499219509681,27.0130202052882,0
1.92598700523376,39.5599975585938,40.7832183837891,33,0.154041290283203,-19.3099994659424,-20.4836578369141,0,16,20.4889113184189,-3.5527136788005e-15,2.15288493835786,1.95943496413627e-15,2.15288493835786,-556.614685058594,27.019998550415,0
1.98703503608704,37.3499984741211,40.7832183837891,33,0.154041290283203,-19.5299987792969,-20.4836578369141,0,16,20.5042419997325,-3.5527136788005e-15,2.65903646733782,1.95943496413627e-15,2.65903646733782,-556.614685058594,27.6396259141592,0
2.03137278556824,37.3499984741211,40.7832183837891,33,0.154041290283203,-19.6199989318848,-20.4836578369141,0,16,20.4993417512002,0.00124140134394253,2.97021840578338,1.95943496413627e-15,2.97021840578338,-556.614685058594,27.6399993896484,0
2.04773545265198,37.3499984741211,40.7832183837891,32,0.154041290283203,-19.6499996185303,-20.4836578369141,0,16,20.4954960762083,0.00134800001978874,3.12832388672753,1.95943496413627e-15,3.12832388672753,-590.088126784237,28.2315687616317,0
2.16741514205933,31.9699993133545,40.7832183837891,32,0.154041290283203,-19.6299991607666,-20.4836578369141,0,16,20.462268697639,0.00134800001978874,4.04713152016263,1.95943496413627e-15,4.04713152016263,-591.131042480469,28.8495750369514,0
2.22980928421021,31.8899993896484,37.8731460571289,31,7.54131507873535,-19.6999988555908,-20.4954776763916,0,16,20.4205578392517,0.00134800001978874,4.56457176672459,1.95943496413627e-15,4.56457176672459,-637.94956175334,29.4206937847322,0
2.27335548400879,28.7600002288818,37.8731460571289,31,7.54131507873535,-19.7999992370605,-20.4954776763916,0,15.999979189369,20.3913891289629,0.0120164021988871,4.90161989537237,1.95943238855917e-15,4.90161989537237,-638.712890625,29.4299983978271,0
2.31480145454407,28.75,37.8731460571289,31,7.54131507873535,-19.8599987030029,-20.4954776763916,0,15.9998867276389,20.3671323245788,0.0594161627061694,5.13190417099955,1.95942094525813e-15,5.13190417099955,-638.712890625,29.4299983978271,0
2.394939661026,25.6700000762939,37.8731460571289,30,7.54131507873535,-20.1099987030029,-20.4954776763916,0,15.9998836517334,20.293171903838,0.0609930008649826,5.65965869209538,1.95942056457617e-15,5.65965869209538,-638.712890625,29.9986932878329,0
2.41259288787842,25.6700000762939,37.8731460571289,30,7.54131507873535,-20.1800003051758,-20.4954776763916,0,15.9998836517334,20.2738326940445,0.0609930008649826,5.78087113292857,1.95942056457617e-15,5.78087113292857,-638.712890625,30,0
2.45827913284302,22.2799987792969,37.8731460571289,30,7.54131507873535,-20.4099998474121,-20.4954776763916,0,15.9998836517334,20.2129880515131,0.0609930008649826,6.16176154011769,1.95942056457617e-15,6.16176154011769,-682.649066108254,30.5586462513052,0
2.49610924720764,22.2799987792969,37.8731460571289,30,7.54131507873535,-20.5699996948242,-20.4954776763916,0,15.9988482922972,20.1732706831156,0.189239172860572,6.41032366510069,1.9592937734616e-15,6.41032366510069,-682.755493164063,30.5599994659424,0
2.55840563774109,19.2099990844727,34.023021697998,29,12.822039604187,-20.8099994659424,-20.9953022003174,0,15.9987821578979,20.1176946223499,0.197430998086929,6.73579721410535,1.95928567457931e-15,6.73579721410535,-682.755493164063,31.1080978807714,0
2.61941146850586,19.2199993133545,34.023021697998,29,12.822039604187,-20.9599990844727,-20.9953022003174,0,15.9987821578979,20.0610774140546,0.197430998086929,7.00479219712239,1.95928567457931e-15,7.00479219712239,-682.755493164063,31.1099987030029,0
2.6526141166687,15.6599998474121,34.023021697998,28,12.822039604187,-21.2099990844727,-20.9953022003174,0,15.9987821578979,20.0013515200751,0.197430998086929,7.28758637285241,1.95928567457931e-15,7.28758637285241,-706.33219651039,31.5951805678622,0
2.78194808959961,13.5699996948242,34.023021697998,29,12.822039604187,-21.6999988555908,-20.9953022003174,0,15.9893250085537,19.8826283431784,0.559486618302909,7.93175850271872,1.95812748811623e-15,7.93175850271872,-709.481994628906,32.2089868602951,0
2.83235096931458,13.5799999237061,34.023021697998,29,12.822039604187,-21.8899993896484,-20.9953022003174,0,15.9872732162476,19.8341090431386,0.638037025928497,8.17991598736268,1.95787621175508e-15,8.17991598736268,-709.481994628906,32.2099990844727,0
2.86709451675415,9.92999935150146,34.023021697998,28,12.822039604187,-22.0900001525879,-20.9953022003174,0,15.9872732162476,19.7974933341576,0.638037025928497,8.35421881947535,1.95787621175508e-15,8.35421881947535,-745.259733487797,32.7389749601191,0
2.89811682701111,9.92000007629395,34.023021697998,28,12.822039604187,-22.2799987792969,-20.9953022003174,0,15.9872732162476,19.7627873683951,0.638037025928497,8.49039690834161,1.95787621175508e-15,8.49039690834161,-745.328918457031,32.7399978637695,0
2.96101522445679,9.89999961853027,26.2885684967041,27,18.51051902771,-22.4499988555908,-20.6214866638184,0,15.9872732162476,19.6923829904855,0.638037025928497,8.72944380067817,1.95787621175508e-15,8.72944380067817,-745.328918457031,33.259082838168,0
2.99719285964966,6.52999973297119,26.2885684967041,27,18.51051902771,-22.6999988555908,-20.6214866638184,0,15.9667685797306,19.6300032977524,1.00887597457841,8.87485607165149,1.95536514276507e-15,8.87485607165149,-745.328918457031,33.2599983215332,0
3.06160688400269,6.52999973297119,26.2885684967041,27,18.51051902771,-22.8799991607666,-20.6214866638184,0,15.9601583480835,19.5906654934602,1.12842607498169,8.98326949628757,1.95455563084361e-15,8.98326949628757,-773.1666890819,33.7533887799489,0
3.10005950927734,5.57999992370605,26.2885684967041,27,18.51051902771,-23.1700000762939,-20.6214866638184,0,15.9601583480835,19.5356917493933,1.12842607498169,9.18321636227222,1.95455563084361e-15,9.18321636227222,-774.103942871094,33.7700004577637,0
3.17537403106689,2.58999991416931,26.2885684967041,27,18.51051902771,-23.4799995422363,-20.6214866638184,0,15.9601583480835,19.4597086207155,1.12842607498169,9.43573907330302,1.95455563084361e-15,9.43573907330302,-774.103942871094,34.2794880892813,0
3.20722770690918,2.58999991416931,26.2885684967041,27,18.51051902771,-23.5599994659424,-20.6214866638184,0,15.799696731865,19.4418710093479,2.48685378227775,9.49939289780363,1.93490475105584e-15,9.49939289780363,-774.103942871094,34.2799987792969,0
3.30668759346008,5.52999973297119,26.2885684967041,29,18.51051902771,-23.8799991607666,-20.6214866638184,0,15.7838191986084,19.3698565044606,2.62126898765564,9.75636137186758,1.93296031409512e-15,9.75636137186758,-791.887414940443,34.7994793478291,0
3.36705946922302,3.41999983787537,16.6317100524902,28,23.9962520599365,-24.0399990081787,-21.9498100280762,0,15.7838191986084,19.3369842688288,2.62126898765564,9.8689180981485,1.93296031409512e-15,9.8689180981485,-791.905212402344,35.3056511467781,0
3.39307427406311,3.40999984741211,16.6317100524902,28,23.9962520599365,-24.1499996185303,-21.9498100280762,0,15.7838191986084,19.3175907186434,2.62126898765564,9.93754741254858,1.93296031409512e-15,9.93754741254858,-791.905212402344,35.3099975585938,0
3.43800854682922,3.40999984741211,16.6317100524902,28,23.9962520599365,-24.25,-21.9498100280762,0,15.7838191986084,19.2965315797459,2.62126898765564,10.0222579075686,1.93296031409512e-15,10.0222579075686,-791.905212402344,35.3099975585938,0
3.49748706817627,1.41999995708466,16.6317100524902,28,23.9962520599365,-24.3599987030029,-21.9498100280762,0,15.5991390424778,19.2725558418025,3.55412885138286,10.1049689926021,1.91034366917385e-15,10.1049689926021,-817.536297060081,35.8111273995127,0
3.52060270309448,1.41999995708466,16.6317100524902,28,23.9962520599365,-24.3899993896484,-21.9498100280762,0,15.5919857025146,19.2645470888718,3.59026193618774,10.1346319182145,1.90946764354479e-15,10.1346319182145,-818.50146484375,35.8299980163574,0
3.58107471466064,3.50999999046326,16.6317100524902,29,23.9962520599365,-24.4599990844727,-21.9498100280762,0,15.5919857025146,19.2265776238088,3.59026193618774,10.2034775035542,1.90946764354479e-15,10.2034775035542,-818.50146484375,36.3600006103516,0
3.62435555458069,3.50999999046326,16.6317100524902,29,23.9962520599365,-24.5,-21.9498100280762,0,15.5919857025146,19.1976133139886,3.59026193618774,10.2243079814459,1.90946764354479e-15,10.2243079814459,-818.50146484375,36.3600006103516,0
3.67021918296814,2.25,16.6317100524902,29,23.9962520599365,-24.5399990081787,-21.9498100280762,0,15.5919857025146,19.1746295526868,3.59026193618774,10.2508570431564,1.90946764354479e-15,10.2508570431564,-807.941781586788,36.8877052267915,0
3.71029543876648,2.25,10.596489906311,29,26.3882369995117,-24.5699996948242,-21.9241542816162,0,14.9477387585217,19.1533580138498,5.7039379652758,10.2641588373167,1.83057010686005e-15,10.2641588373167,-807.895874023438,36.8899993896484,0
3.75673675537109,9.34000015258789,10.596489906311,33,26.3882369995117,-24.6299991607666,-21.9241542816162,0,14.9437532424927,19.1342590573193,5.71701383590698,10.283353721709,1.83008202166222e-15,10.283353721709,-807.895874023438,37.4392018989742,0
3.82921314239502,9.34000015258789,10.596489906311,33,26.3882369995117,-24.6800003051758,-21.9241542816162,0,14.9437532424927,19.0894391746174,5.71701383590698,10.3065468702346,1.83008202166222e-15,10.3065468702346,-807.895874023438,37.439998626709,0
3.88155150413513,8.67000007629395,10.596489906311,33,26.3882369995117,-24.6800003051758,-21.9241542816162,0,14.9437532424927,19.0399895464041,5.71701383590698,10.3450175912297,1.83008202166222e-15,10.3450175912297,-812.76813575174,38.008681364897,0
3.92692947387695,8.67000007629395,10.596489906311,33,26.3882369995117,-24.6800003051758,-21.9241542816162,0,14.9437532424927,19.0063165634885,5.71701383590698,10.3828505167185,1.83008202166222e-15,10.3828505167185,-812.779418945313,38.0099983215332,0
3.95424842834473,8.67000007629395,10.596489906311,34,26.3882369995117,-24.6700000762939,-21.9241542816162,0,14.7669514625077,18.9980670781316,6.15572878001588,10.4010288942651,1.80843002034432e-15,10.4010288942651,-812.779418945313,38.5648939009978,0
3.98388457298279,9.76999950408936,9.19405937194824,34,27.6494655609131,-24.6599998474121,-21.8321590423584,0,14.7320604324341,18.9739915733221,6.24230718612671,10.4488213998577,1.80415709600385e-15,10.4488213998577,-812.779418945313,38.5999984741211,0
4.01553654670715,9.76999950408936,9.19405937194824,34,27.6494655609131,-24.6499996185303,-21.8321590423584,0,14.7320604324341,18.9579673677191,6.24230718612671,10.4855814185172,1.80415709600385e-15,10.4855814185172,-812.779418945313,38.5999984741211,0
4.08277297019958,8.88999938964844,9.19405937194824,34,27.6494655609131,-24.6299991607666,-21.8321590423584,0,14.7320604324341,18.9230868415935,6.24230718612671,10.5559943159612,1.80415709600385e-15,10.5559943159612,-818.015741668298,39.1996786071408,0
4.16710019111633,8.14999961853027,9.19405937194824,33,27.6494655609131,-24.2399997711182,-21.8321590423584,0,13.7314607130894,18.8899146408273,8.20441589910655,10.620537310574,1.68161889804463e-15,10.620537310574,-818.0185546875,39.8294123003057,0
4.22280931472778,8.14999961853027,9.19405937194824,33,27.6494655609131,-24.2399997711182,-21.8321590423584,0,13.7037076950073,18.8691168005398,8.25883769989014,10.6781434525846,1.67822013152696e-15,10.6781434525846,-818.0185546875,39.8299980163574,0
4.30715751647949,15.3699998855591,9.19405937194824,38,27.6494655609131,-23.8299999237061,-21.8321590423584,0,13.7037076950073,18.8360731978625,8.25883769989014,10.7556334430021,1.67822013152696e-15,10.7556334430021,-810.312319621711,40.4397086680112,0
4.31897640228271,15.3800001144409,9.19405937194824,38,27.6494655609131,-23.8299999237061,-21.8321590423584,0,13.7037076950073,18.8285702124177,8.25883769989014,10.7729771999153,1.67822013152696e-15,10.7729771999153,-810.308654785156,40.4401724833442,0
4.39238786697388,15.0699996948242,9.19405937194824,38,27.6494655609131,-23.3500003814697,-21.8321590423584,0,13.7037076950073,18.8059634533508,8.25883769989014,10.8348838962001,1.67822013152696e-15,10.8348838962001,-810.308654785156,41.0774605373725,0
4.44130778312683,15.0999994277954,10.5237531661987,38,27.1343193054199,-23.3500003814697,-21.511905670166,0,13.4131674705147,18.7941822201424,8.72217388393263,10.8895105546415,1.64263926571289e-15,10.8895105546415,-810.308654785156,41.0799980163574,0
4.47504425048828,16.6199989318848,10.5237531661987,39,27.1343193054199,-22.9599990844727,-21.511905670166,0,13.4028339385986,18.7825678945198,8.7386531829834,10.9592338046571,1.64137377480492e-15,10.9592338046571,-815.054712078628,41.6786745910585,0
4.51662397384644,16.6299991607666,10.5237531661987,39,27.1343193054199,-22.9599990844727,-21.511905670166,0,13.4028339385986,18.7732473490466,8.7386531829834,11.0011507911139,1.64137377480492e-15,11.0011507911139,-815.303039550781,41.7099990844727,0
4.58373355865479,16.3500003814697,10.5237531661987,39,27.1343193054199,-22.6000003814697,-21.511905670166,0,13.4028339385986,18.7589411174106,8.7386531829834,11.0607219135354,1.64137377480492e-15,11.0607219135354,-815.303039550781,42.3295271982445,0
4.62921166419983,16.3500003814697,10.5237531661987,39,27.1343193054199,-22.6000003814697,-21.511905670166,0,13.4028339385986,18.7504568863548,8.7386531829834,11.1099147605822,1.64137377480492e-15,11.1099147605822,-815.303039550781,42.3299980163574,0
4.67465591430664,16.0799999237061,10.5237531661987,39,27.1343193054199,-22.2899990081787,-21.511905670166,0,12.6104333106448,18.7414123492614,9.78408892474379,11.1625796312733,1.5443327168312e-15,11.1625796312733,-826.886433649562,42.949453479267,0
4.74049091339111,16.0699996948242,10.4383888244629,39,27.9915466308594,-22.2899990081787,-20.6418571472168,0,12.0354957580566,18.7267577273865,10.5426197052002,11.2394250014255,1.47392319618751e-15,11.2394250014255,-826.896667480469,42.9500007629395,0
4.78482174873352,23.4200000762939,10.4383888244629,44,27.9915466308594,-21.9699993133545,-20.6418571472168,0,12.0354957580566,18.711398999484,10.5426197052002,11.2970249275434,1.47392319618751e-15,11.2970249275434,-826.896667480469,43.5594304542509,0
4.83069348335266,23.4300003051758,10.4383888244629,44,27.9915466308594,-21.9699993133545,-20.6418571472168,0,12.0354957580566,18.6988259526678,10.5426197052002,11.3410669437724,1.47392319618751e-15,11.3410669437724,-826.896667480469,43.5599975585938,0
4.89506721496582,23.5499992370605,10.4383888244629,45,27.9915466308594,-21.6800003051758,-20.6418571472168,0,12.0354957580566,18.6807834781835,10.5426197052002,11.3958623773255,1.47392319618751e-15,11.3958623773255,-835.671528544515,44.1468558917847,0
4.94188499450684,23.5399990081787,10.4383888244629,45,27.9915466308594,-21.6800003051758,-20.6418571472168,0,10.9508731313093,18.6645932138958,11.655652774096,11.4259254671096,1.34109520508616e-15,11.4259254671096,-835.718505859375,44.1499977111816,0
4.98228526115417,28.4699993133545,10.4383888244629,48,27.9915466308594,-21.3199996948242,-20.6418571472168,0,10.8502225875854,18.6406667131262,11.758939743042,11.4477741485726,1.32876906584067e-15,11.4477741485726,-835.718505859375,44.7496824837306,0
5.01644349098206,28.4799995422363,10.4383888244629,48,27.9915466308594,-21.3199996948242,-20.6418571472168,0,10.8502225875854,18.616660243348,11.758939743042,11.4695031846929,1.32876906584067e-15,11.4695031846929,-835.718505859375,44.75,0
5.09126806259155,28.8699989318848,10.4383888244629,49,27.9915466308594,-20.8999996185303,-20.6418571472168,0,10.8502225875854,18.5729895303086,11.758939743042,11.5592637053767,1.32876906584067e-15,11.5592637053767,-850.045870117842,45.3598175556415,0
5.13798499107361,28.8899993896484,10.4383888244629,49,27.9915466308594,-20.8899993896484,-20.6418571472168,0,10.8502225875854,18.553984821005,11.758939743042,11.6390884626913,1.32876906584067e-15,11.6390884626913,-850.050170898438,45.3600006103516,0
5.18783664703369,29,10.4383888244629,49,27.9915466308594,-20.5799999237061,-20.6418571472168,0,10.011725855026,18.5234282900418,12.4794025786163,11.724705510182,1.22608274499015e-15,11.724705510182,-850.050170898438,45.9591706898662,0
5.22258400917053,29,13.8571214675903,49,31.5396995544434,-20.5799999237061,-20.3555030822754,0,9.99124240875244,18.490801840976,12.4970026016235,11.7993965128982,1.22357424417615e-15,11.7993965128982,-850.050170898438,45.9599990844727,0
5.27995800971985,31.8999996185303,13.8571214675903,52,31.5396995544434,-20.2899990081787,-20.3555030822754,0,9.99124240875244,18.4443766811308,12.4970026016235,11.8996761621734,1.22357424417615e-15,11.8996761621734,-838.018890107779,46.5643052290818,0
5.32779002189636,31.8699989318848,13.8571214675903,52,31.5396995544434,-20.2700004577637,-20.3555030822754,0,9.75541773041529,18.3815171958454,12.678795019592,11.9691850939589,1.19469409950371e-15,11.9691850939589,-837.905517578125,46.5699996948242,0
5.42746877670288,31.8999996185303,13.8571214675903,53,31.5396995544434,-19.8299999237061,-20.3555030822754,0,9.54270172119141,18.2387035047562,12.8427734375,12.0978384875214,1.16864394578847e-15,12.0978384875214,-836.908745385833,47.1580595480469,0
5.47587966918945,33.3299980163574,13.8571214675903,55,31.5396995544434,-19.2799987792969,-20.3555030822754,0,9.54270172119141,18.1436982624258,12.8427734375,12.2010253386838,1.16864394578847e-15,12.2010253386838,-782.350413638847,47.7793507781149,0
5.5204918384552,33.2999992370605,13.8571214675903,55,31.5396995544434,-19.2600002288818,-20.3555030822754,0,9.54270172119141,18.0762311828844,12.8427734375,12.2920529323624,1.16864394578847e-15,12.2920529323624,-782.293334960938,47.7799987792969,0
5.58614134788513,33.1399993896484,13.8571214675903,55,31.5396995544434,-18.6599998474121,-20.3555030822754,0,9.54270172119141,17.9757256196379,12.8427734375,12.4327098260969,1.16864394578847e-15,12.4327098260969,-783.292746753582,48.3996330232493,0
5.59611678123474,33.1499977111816,13.8571214675903,55,31.5396995544434,-18.6499996185303,-20.3555030822754,0,9.54270172119141,17.9584661572858,12.8427734375,12.4567537769259,1.16864394578847e-15,12.4567537769259,-783.293334960938,48.3999977111816,0
5.67235612869263,38.189998626709,23.1179866790771,61,33.4320220947266,-18.0799999237061,-21.002326965332,0,7.64117380165996,17.8377509354648,14.0568649511645,12.6197647808362,9.35773881756615e-16,12.6197647808362,-776.894420305199,49.0483901135663,0
5.70028257369995,38.1699981689453,23.1179866790771,61,33.4320220947266,-18.0599994659424,-21.002326965332,0,7.63481712341309,17.7673081159772,14.060923576355,12.7185431009542,9.34995413002528e-16,12.7185431009542,-776.878540039063,49.0499992370605,0
5.77377223968506,38.0599975585938,23.1179866790771,61,33.4320220947266,-17.4499988555908,-21.002326965332,0,7.63481712341309,17.6515050948858,14.060923576355,12.891234715102,9.34995413002528e-16,12.891234715102,-775.890080660703,49.6924993412637,0
5.79587006568909,38.0699996948242,23.1179866790771,61,33.4320220947266,-17.4400005340576,-21.002326965332,0,7.63481712341309,17.5777334964088,14.060923576355,13.0535805535491,9.34995413002528e-16,13.0535805535491,-775.878540039063,49.7000007629395,0
5.88334822654724,37.8099975585938,23.1179866790771,62,33.4320220947266,-16.9899997711182,-21.002326965332,0,6.23187117914059,17.3957724464379,14.7288579966925,13.39082319396,7.63184098942303e-16,13.39082319396,-779.936711725488,50.348856848099,0
5.90907406806946,37.8400001525879,23.1179866790771,62,33.4320220947266,-16.9899997711182,-21.002326965332,0,6.10140991210938,17.341449621559,14.7909698486328,13.4990918021292,7.47207202744625e-16,13.4990918021292,-780.006408691406,50.3600006103516,0
5.99154591560364,40.9099998474121,27.2795219421387,67,34.9058303833008,-16.5900001525879,-20.7335586547852,0,6.10140991210938,17.1068527593183,14.7909698486328,13.968357477364,7.47207202744625e-16,13.968357477364,-780.006408691406,50.9998834118458,0
6.02416753768921,40.9500007629395,27.2795219421387,67,34.9058303833008,-16.5900001525879,-20.7335586547852,0,6.10140991210938,17.0417759008953,14.7909698486328,14.0920730993394,7.47207202744625e-16,14.0920730993394,-780.006408691406,51,0
6.04329228401184,40.9699974060059,27.2795219421387,68,34.9058303833008,-16.5799999237061,-20.7335586547852,0,6.10140991210938,17.0060114938672,14.7909698486328,14.1592972958217,7.47207202744625e-16,14.1592972958217,-791.701485933241,51.5923593036139,0
6.11159467697144,40.7000007629395,27.2795219421387,68,34.9058303833008,-16.2600002288818,-20.7335586547852,0,5.09429616011515,16.8013223568618,15.1654545050903,14.5288021378208,6.23871333523794e-16,14.5288021378208,-792.444580078125,51.629997253418,0
6.15572309494019,42.1800003051758,27.2795219421387,71,34.9058303833008,-15.960000038147,-20.7335586547852,0,5.04444932937622,16.6971883575957,15.1839895248413,14.7191495659321,6.17766857058334e-16,14.7191495659321,-792.444580078125,52.2376040023493,0
6.19670224189758,42.2299995422363,27.2795219421387,71,34.9058303833008,-15.960000038147,-20.7335586547852,0,5.04444932937622,16.553170672847,15.1839895248413,14.937273227865,6.17766857058334e-16,14.937273227865,-792.444580078125,52.2399978637695,0
6.25230693817139,42.3099975585938,27.2795219421387,72,34.9058303833008,-15.6899995803833,-20.7335586547852,0,5.04444932937622,16.39191639752,15.1839895248413,15.1672587287686,6.17766857058334e-16,15.1672587287686,-825.564653007627,52.8115572133288,0
6.3007230758667,42.3699989318848,27.2795219421387,72,34.9058303833008,-15.6899995803833,-20.7335586547852,0,5.04444932937622,16.2688085700886,15.1839895248413,15.338540871526,6.17766857058334e-16,15.338540871526,-826.633239746094,52.8299980163574,0
6.4004065990448,42.1399993896484,29.7399215698242,73,39.6887054443359,-13.8999996185303,-18.9139442443848,0,3.50969509816549,15.9593389375302,15.6094066521482,15.7285657101994,4.2981367830033e-16,15.7285657101994,-826.633239746094,53.4080299881118,0
6.50026869773865,42.4899978637695,29.7399215698242,77,39.6887054443359,-11.6099996566772,-18.9139442443848,0,3.49246907234192,15.6366591817805,15.6141815185547,16.0733911678385,4.27704098639257e-16,16.0733911678385,-850.741016131223,53.9697278856678,0
6.59702563285828,42.5200004577637,29.7399215698242,78,39.6887054443359,-9.28999996185303,-18.9139442443848,0,2.56485455870086,15.2751282729453,15.7925614163523,16.4601198865894,3.14104094052036e-16,16.4601198865894,-850.752624511719,54.5491611047588,0
6.68249893188477,42.6800003051758,29.7399215698242,81,39.6887054443359,-7.10999965667725,-18.9139442443848,0,2.54767489433289,14.9479561653481,15.7958650588989,16.8563042499525,3.12000192137708e-16,16.8563042499525,-844.858935863394,55.1193514959941,0
6.7069034576416,42.7199974060059,29.7399215698242,81,39.6887054443359,-7.09999990463257,-18.9139442443848,0,2.54767489433289,14.8562367845442,15.7958650588989,16.9556213182357,3.12000192137708e-16,16.9556213182357,-844.852233886719,55.1199989318848,0
6.76417279243469,42.8600006103516,33.102424621582,82,45.466552734375,-5.02999973297119,-17.6291904449463,0,2.54767489433289,14.5789031262209,15.7958650588989,17.2569833971467,3.12000192137708e-16,17.2569833971467,-844.852233886719,55.6795604498239,0
6.79637765884399,42.9599990844727,33.102424621582,82,45.466552734375,-5.01999998092651,-17.6291904449463,0,2.54767489433289,14.3466630572282,15.7958650588989,17.499502400779,3.12000192137708e-16,17.499502400779,-844.852233886719,55.6800003051758,0
6.84987545013428,43.1199989318848,33.102424621582,83,45.466552734375,-3.07999992370605,-17.6291904449463,0,1.73961976981672,14.0273537021919,15.8955602835393,17.8435431852472,2.13041978050502e-16,17.8435431852472,-844.833414812246,56.2088528397431,0
6.90936326980591,43.2099990844727,33.102424621582,83,45.466552734375,-3.07999992370605,-17.6291904449463,0,1.36795699596405,13.8131748540909,15.9414148330688,18.0713547755666,1.67526414535972e-16,18.0713547755666,-844.833374023438,56.2101156612031,0
6.99653601646423,43.4300003051758,33.102424621582,87,45.466552734375,-1.26999998092651,-17.6291904449463,0,1.36795699596405,13.2130112030887,15.9414148330688,18.6526387569595,1.67526414535972e-16,18.6526387569595,-844.833374023438,56.729918507192,0
7.06147241592407,43.5599975585938,33.102424621582,87,45.466552734375,0.389999985694885,-17.6291904449463,0,1.36795699596405,12.82528481356,15.9414148330688,19.0162348492879,1.67526414535972e-16,19.0162348492879,-862.59175968245,57.2090842165277,0
7.14870095252991,43.7099990844727,33.102424621582,87,45.466552734375,0.399999976158142,-17.6291904449463,0,0.389940460969891,12.3107397677793,15.9946346947954,19.4762361561095,4.77539339652488e-17,19.4762361561095,-862.625671386719,57.2099990844727,0
7.23148655891418,43.8499984741211,36.4810523986816,91,53.6924209594727,2.00999999046326,-12.7291650772095,0,0.369944989681244,11.7857993586672,15.9957227706909,19.9204164559055,4.53051950015091e-17,19.9204164559055,-862.625671386719,57.64667279348,0
7.24854779243469,43.8699989318848,36.4810523986816,91,53.6924209594727,2.00999999046326,-12.7291650772095,0,0.369944989681244,11.6337103729055,15.9957227706909,20.0468641813079,4.53051950015091e-17,20.0468641813079,-862.625671386719,57.6599998474121,0
7.29637002944946,43.9599990844727,36.4810523986816,91,53.6924209594727,3.47000002861023,-12.7291650772095,0,0.369944989681244,11.2413833065784,15.9957227706909,20.3629430943633,4.53051950015091e-17,20.3629430943633,-888.485115514347,58.070908673591,0
7.32261729240417,43.9899978637695,36.4810523986816,91,53.6924209594727,3.47000002861023,-12.7291650772095,0,0.369944989681244,11.092424519976,15.9957227706909,20.4767179172165,4.53051950015091e-17,20.4767179172165,-889.05712890625,58.0799980163574,0
7.41124606132507,44.1199989318848,36.4810523986816,92,53.6924209594727,4.8899998664856,-12.7291650772095,0,0.0693573297602512,10.5547738840553,15.9997412355804,20.8795515611804,8.49382328751067e-18,20.8795515611804,-889.05712890625,58.4777582139767,0
7.42940497398376,44.1499977111816,36.4810523986816,92,53.6924209594727,4.8899998664856,-12.7291650772095,0,0.0577769987285137,10.4153550562766,15.9998960494995,20.9769233426836,7.07564174841327e-18,20.9769233426836,-889.05712890625,58.4799995422363,0
7.47716212272644,44.2399978637695,36.4810523986816,94,53.6924209594727,6.12999963760376,-12.7291650772095,0,0.0577769987285137,9.92810513711713,15.9998960494995,21.310241984847,7.07564174841327e-18,21.310241984847,-878.943870665253,58.8276952802212,0
7.51372098922729,44.2999992370605,36.4810523986816,94,53.6924209594727,6.12999963760376,-12.7291650772095,0,0.0577769987285137,9.60649125781426,15.9998960494995,21.5241331291511,7.07564174841327e-18,21.5241331291511,-878.876892089844,58.8299980163574,0
7.58752417564392,44.3699989318848,37.3962135314941,94,61.8688850402832,7.23000001907349,-8.40787124633789,0,0.0111238013053662,9.0561114769729,15.9999800024014,21.8676439471639,1.36227278412826e-18,21.8676439471639,-878.876892089844,59.1193742777688,0
7.63143444061279,44.4099998474121,37.3962135314941,94,61.8688850402832,7.23000001907349,-8.40787124633789,0,1.10000000859145e-05,8.76987133091659,16,22.0400403438073,1.34711148931145e-21,22.0400403438073,-878.876892089844,59.1599998474121,0
7.67832589149475,43.5299987792969,37.3962135314941,95,61.8688850402832,8.14999961853027,-8.40787124633789,0,1.10000000859145e-05,8.28684197243313,16,22.3071587565778,1.34711148931145e-21,22.3071587565778,-902.518997133605,59.4099796133058,0
7.71082234382629,43.5400009155273,37.3962135314941,95,61.8688850402832,8.15999984741211,-8.40787124633789,0,1.10000000859145e-05,8.09595830048787,16,22.4107101769406,1.34711148931145e-21,22.4107101769406,-904.412475585938,59.4300003051758,0
7.78317141532898,41.9199981689453,37.3962135314941,96,61.8688850402832,9,-8.40787124633789,0,1.10000000859145e-05,7.39499777265828,16,22.7830397166329,1.34711148931145e-21,22.7830397166329,-904.412475585938,59.6698204857272,0
7.82638740539551,41.9300003051758,37.3962135314941,96,61.8688850402832,9.01000022888184,-8.40787124633789,0,3.23970879739678e-06,7.07598198511512,16,22.9283699704887,3.96749879857326e-22,22.9283699704887,-904.412475585938,59.6699981689453,0
7.84543085098267,41.939998626709,37.3962135314941,96,61.8688850402832,9.01000022888184,-8.40787124633789,0,3.00000010611257e-06,6.92474648881956,16,22.9965788998214,3.67394031065145e-22,22.9965788998214,-904.412475585938,59.6699981689453,0
7.89664101600647,40.25,38.3811950683594,96,69.1306457519531,9.80000019073486,-6.12998199462891,0,3.00000010611257e-06,6.4209953711852,16,23.2295777161687,3.67394031065145e-22,23.2295777161687,-933.654426667271,59.8596346721676,0
7.91810536384583,40.2599983215332,38.3811950683594,96,69.1306457519531,9.80000019073486,-6.12998199462891,0,3.00000010611257e-06,6.25353192970913,16,23.2981599307229,3.67394031065145e-22,23.2981599307229,-933.710266113281,59.8599967956543,0
7.99008536338806,38.439998626709,38.3811950683594,96,69.1306457519531,10.5799999237061,-6.12998199462891,0,3.00000010611257e-06,5.77284263854383,16,23.5048836331122,3.67394031065145e-22,23.5048836331122,-933.710266113281,60.0298489159101,0
8.03445959091187,38.4599990844727,38.3811950683594,96,69.1306457519531,10.5799999237061,-6.12998199462891,0,3.00000010611257e-06,5.49081336349979,16,23.607270426489,3.67394031065145e-22,23.607270426489,-933.710266113281,60.0299987792969,0
8.07542753219604,36.2599983215332,38.3811950683594,97,69.1306457519531,11.2299995422363,-6.12998199462891,0,3.00000010611257e-06,4.8761430702934,16,23.8295938066193,3.67394031065145e-22,23.8295938066193,-940.118948647916,60.1580448310601,0
8.12381935119629,36.2799987792969,38.3811950683594,97,69.1306457519531,11.2299995422363,-6.12998199462891,0,3.00000010611257e-06,4.50484752027733,16,23.9664522358949,3.67394031065145e-22,23.9664522358949,-940.216796875,60.1599998474121,0
8.18570137023926,33.7199974060059,38.3811950683594,97,69.1306457519531,11.7799997329712,-6.12998199462891,0,3.00000010611257e-06,3.92216592502486,16,24.1491286411188,3.67394031065145e-22,24.1491286411188,-940.216796875,60.2774922706387,0
8.22345042228699,33.7299995422363,38.3811950683594,97,69.1306457519531,11.7699995040894,-6.12998199462891,0,3.00000010611257e-06,3.58234898987448,16,24.2381581969993,3.67394031065145e-22,24.2381581969993,-940.216796875,60.2799987792969,0
8.2734899520874,30.8699989318848,38.3811950683594,97,69.1306457519531,12.1999998092651,-6.12998199462891,0,3.00000010611257e-06,3.0346707096591,16,24.3931675643012,3.67394031065145e-22,24.3931675643012,-949.60417403856,60.3499283582342,0
8.31495594978333,30.8699989318848,38.7407646179199,97,78.79833984375,12.1999998092651,-2.53013467788696,0,3.00000010611257e-06,2.68957510825674,16,24.4691300151503,3.67394031065145e-22,24.4691300151503,-949.613586425781,60.3499984741211,0
8.42846989631653,27.7099990844727,38.7407646179199,97,78.79833984375,12.539999961853,-2.53013467788696,0,3.00000010611257e-06,1.69883070840952,16,24.6507049218076,3.67394031065145e-22,24.6507049218076,-949.613586425781,60.4099786553761,0
8.47249341011047,23.8999996185303,38.7407646179199,98,78.79833984375,12.6899995803833,-2.53013467788696,0,3.00000010611257e-06,1.11650464405352,16,24.726300043394,3.67394031065145e-22,24.726300043394,-970.071031643929,60.4099998474121,0
8.52115321159363,23.8999996185303,38.7407646179199,98,78.79833984375,12.6700000762939,-2.53013467788696,0,3.00000010611257e-06,0.74825194385985,16,24.7673542298846,3.67394031065145e-22,24.7673542298846,-970.20166015625,60.4099998474121,0
8.56940317153931,19.8099994659424,38.7407646179199,98,78.79833984375,12.7299995422363,-2.53013467788696,0,3.00000010611257e-06,0.37396315183373,16,24.8058977596265,3.67394031065145e-22,24.8058977596265,-970.20166015625,60.3900531452214,0
8.6257758140564,19.8099994659424,38.7407646179199,98,78.79833984375,12.710000038147,-2.53013467788696,0,3.00000010611257e-06,-0.151776720940046,16,24.8245394757099,3.67394031065145e-22,24.8245394757099,-970.20166015625,60.3899993896484,0
8.64108848571777,19.8099994659424,38.7407646179199,98,78.79833984375,12.6999998092651,-2.53013467788696,0,3.00000010611257e-06,-0.278921681122194,16,24.8341074775061,3.67394031065145e-22,24.8341074775061,-970.20166015625,60.3899993896484,0
8.69955468177795,15.7799997329712,38.7407646179199,98,78.79833984375,12.6599998474121,-2.53013467788696,0,3.00000010611257e-06,-0.664733004495148,16,24.833606015708,3.67394031065145e-22,24.833606015708,-961.826262132949,60.3000519897538,0
8.73906707763672,15.7699995040894,34.3454246520996,98,87.5901031494141,12.6399993896484,1.39866578578949,0,3.00000010611257e-06,-1.14099793738571,16,24.8268346667808,3.67394031065145e-22,24.8268346667808,-961.821350097656,60.2999992370605,0
8.79362773895264,11.5299997329712,34.3454246520996,98,87.5901031494141,12.4899997711182,1.39866578578949,0,3.00000010611257e-06,-1.50971295557096,16,24.7907063467792,3.67394031065145e-22,24.7907063467792,-961.821350097656,60.1900765536491,0
8.82135963439941,11.5299997329712,34.3454246520996,98,87.5901031494141,12.4799995422363,1.39866578578949,0,3.00000010611257e-06,-1.81671485800666,16,24.7450705424043,3.67394031065145e-22,24.7450705424043,-961.821350097656,60.189998626709,0
8.90312218666077,7,34.3454246520996,97,87.5901031494141,12.0699996948242,1.39866578578949,0,3.00000010611257e-06,-2.50717391897786,16,24.6259132013369,3.67394031065145e-22,24.6259132013369,-967.836832267208,60.0002259383261,0
8.94320011138916,6.98999977111816,34.3454246520996,97,87.5901031494141,12.0500001907349,1.39866578578949,0,3.00000010611257e-06,-2.79859866046455,16,24.5624713521769,3.67394031065145e-22,24.5624713521769,-967.843994140625,60,0
8.99653577804565,2.30999994277954,34.3454246520996,97,87.5901031494141,11.4699993133545,1.39866578578949,0,3.00000010611257e-06,-3.15142119171206,16,24.4518486231987,3.67394031065145e-22,24.4518486231987,-967.843994140625,59.7706750130068,0
9.04664659500122,2.29999995231628,28.8905467987061,97,94.0238189697266,11.4399995803833,6.07812118530273,0,3.00000010611257e-06,-3.58286207641942,16,24.277240072771,3.67394031065145e-22,24.277240072771,-967.843994140625,59.7700004577637,0
9.07272791862488,-2.10999989509583,28.8905467987061,97,94.0238189697266,10.6199998855591,6.07812118530273,0,3.00000010611257e-06,-3.85895350432636,16,24.1452003007662,3.67394031065145e-22,24.1452003007662,-947.532075804279,59.4741641892851,0
9.11478757858276,-2.09999990463257,28.8905467987061,97,94.0238189697266,10.5999994277954,6.07812118530273,0,3.00000010611257e-06,-4.13387511192593,16,24.0151127209044,3.67394031065145e-22,24.0151127209044,-946.559509277344,59.4599990844727,0
9.18177795410156,-6.04999971389771,28.8905467987061,97,94.0238189697266,9.60999965667725,6.07812118530273,0,3.00000010611257e-06,-4.4288895061883,16,23.8218362299529,3.67394031065145e-22,23.8218362299529,-946.559509277344,59.0905049007915,0
9.23863101005554,-6.04999971389771,28.8905467987061,97,94.0238189697266,9.59000015258789,6.07812118530273,0,3.00000010611257e-06,-4.68688806713496,16,23.6137968903893,3.67394031065145e-22,23.6137968903893,-946.559509277344,59.0900001525879,0
9.29426455497742,-9.48999977111816,28.8905467987061,97,94.0238189697266,8.38000011444092,6.07812118530273,0,3.00000010611257e-06,-4.93672931559776,16,23.385386038691,3.67394031065145e-22,23.385386038691,-893.81906312055,58.6318828096613,0
9.30952191352844,-9.48999977111816,28.8905467987061,97,94.0238189697266,8.36999988555908,6.07812118530273,0,3.00000010611257e-06,-5.00853197926851,16,23.3201680498155,3.67394031065145e-22,23.3201680498155,-893.601989746094,58.629997253418,0
9.36609363555908,-12.0799999237061,20.6580123901367,96,98.8026580810547,7.21999979019165,9.59685611724854,0,3.00000010611257e-06,-5.19680497412822,16,23.1139186514555,3.67394031065145e-22,23.1139186514555,-893.601989746094,58.1307836776109,0
9.42847084999084,-12.0799999237061,20.6580123901367,96,98.8026580810547,7.19000005722046,9.59685611724854,0,3.00000010611257e-06,-5.33427107699232,16,22.8893666184749,3.67394031065145e-22,22.8893666184749,-893.601989746094,58.129997253418,0
9.45685219764709,-13.9399995803833,20.6580123901367,96,98.8026580810547,5.98999977111816,9.59685611724854,0,3.00000010611257e-06,-5.39966097001565,16,22.761680609891,3.67394031065145e-22,22.761680609891,-844.073627672697,57.5921863651011,0
9.47570538520813,-13.9299993515015,20.6580123901367,96,98.8026580810547,5.98000001907349,9.59685611724854,0,3.00000010611257e-06,-5.43017766321571,16,22.6868640052935,3.67394031065145e-22,22.6868640052935,-842.951171875,57.5799980163574,0
9.51703000068665,-13.9299993515015,20.6580123901367,96,98.8026580810547,5.96999979019165,9.59685611724854,0,3.00000010611257e-06,-5.47275176852857,16,22.5510161468862,3.67394031065145e-22,22.5510161468862,-842.951171875,57.5799980163574,0
9.60143351554871,-15.2699995040894,20.6580123901367,96,98.8026580810547,4.76999998092651,9.59685611724854,0,3.00000010611257e-06,-5.54145238454604,16,22.266420740294,3.67394031065145e-22,22.266420740294,-842.951171875,57.0225226002869,0
9.64039397239685,-15.2599992752075,20.6580123901367,96,98.8026580810547,4.76999998092651,9.59685611724854,0,3.00000010611257e-06,-5.55095585802165,16,22.1925548136051,3.67394031065145e-22,22.1925548136051,-842.951171875,57.0200004577637,0
9.70567774772644,-16.2799987792969,20.6580123901367,95,98.8026580810547,3.48000001907349,9.59685611724854,0,3.00000010611257e-06,-5.55527778303523,16,21.9193444701891,3.67394031065145e-22,21.9193444701891,-790.855130037862,56.4565645205474,0
9.7276782989502,-16.2799987792969,7.8844690322876,95,101.836837768555,3.47000002861023,10.8461179733276,0,3.00000010611257e-06,-5.55117838654588,16,21.845893264421,3.67394031065145e-22,21.845893264421,-789.323425292969,56.439998626709,0
9.80285620689392,-16.9400005340576,7.8844690322876,95,101.836837768555,2.22000002861023,10.8461179733276,0,3.00000010611257e-06,-5.49675375708227,16,21.5991985883557,3.67394031065145e-22,21.5991985883557,-789.323425292969,55.8616488116993,0
9.86562943458557,-17.2399997711182,7.8844690322876,95,101.836837768555,0.989999949932098,10.8461179733276,0,3.00000010611257e-06,-5.4463413166353,16,21.4020540865946,3.67394031065145e-22,21.4020540865946,-741.714438413962,55.2849560599042,0
9.88554048538208,-17.2399997711182,7.8844690322876,95,101.836837768555,0.989999949932098,10.8461179733276,0,3.00000010611257e-06,-5.42930337475539,16,21.3360958940292,3.67394031065145e-22,21.3360958940292,-741.304016113281,55.2799987792969,0
9.92673063278198,-17.2299995422363,7.8844690322876,95,101.836837768555,0.989999949932098,10.8461179733276,0,3.00000010611257e-06,-5.38248349096392,16,21.2138963443483,3.67394031065145e-22,21.2138963443483,-741.304016113281,55.2799987792969,0
9.9846293926239,-17.4300003051758,7.8844690322876,95,101.836837768555,-0.179999992251396,10.8461179733276,0,3.00000010611257e-06,-5.28384998999904,16,21.0278804635205,3.67394031065145e-22,21.0278804635205,-741.304016113281,54.7205690688399,0
10.0226349830627,-17.4200000762939,7.8844690322876,95,101.836837768555,-0.179999992251396,10.8461179733276,0,3.00000010611257e-06,-5.23146866706732,16,20.918661346202,3.67394031065145e-22,20.918661346202,-741.304016113281,54.7199974060059,0
10.0716233253479,-17.2799987792969,7.8844690322876,94,101.836837768555,-1.37999999523163,10.8461179733276,0,3.00000010611257e-06,-5.11809494649674,16,20.7352359776114,3.67394031065145e-22,20.7352359776114,-680.10556913475,54.1527678218902,0
10.1686143875122,-17.1000003814697,7.8844690322876,94,101.836837768555,-2.52999997138977,10.8461179733276,0,3.00000010611257e-06,-4.95067655569525,16,20.4697402562479,3.67394031065145e-22,20.4697402562479,-679.806701660156,53.6002341944663,0
10.2366902828217,-17.0900001525879,-4.4234766960144,94,102.951072692871,-2.52999997138977,11.9472169876099,0,3.00000010611257e-06,-4.84814202407983,16,20.3156293009589,3.67394031065145e-22,20.3156293009589,-679.806701660156,53.5999984741211,0
10.2873427867889,-16.6299991607666,-4.4234766960144,94,102.951072692871,-3.69999980926514,11.9472169876099,0,3.00000010611257e-06,-4.72305630878773,16,20.1557245586692,3.67394031065145e-22,20.1557245586692,-611.732875277878,53.0450121477735,0
10.3467786312103,-16.6399993896484,-4.4234766960144,94,102.951072692871,-3.69999980926514,11.9472169876099,0,3.00000010611257e-06,-4.57825965016772,16,19.9759189529171,3.67394031065145e-22,19.9759189529171,-611.117736816406,53.0399971008301,0
10.4107947349548,-16.1999988555908,-4.4234766960144,93,102.951072692871,-4.85999965667725,11.9472169876099,0,3.00000010611257e-06,-4.44162203297524,16,19.8171545351368,3.67394031065145e-22,19.8171545351368,-611.117736816406,52.4910210572484,0
10.4637501239777,-15.6199998855591,-4.4234766960144,93,102.951072692871,-5.94999980926514,11.9472169876099,0,3.00000010611257e-06,-4.29718740256451,16,19.6620238936921,3.67394031065145e-22,19.6620238936921,-554.492509215424,51.956663299386,0
10.4984169006348,-15.6199998855591,-8.5477819442749,93,102.300437927246,-5.94999980926514,11.4809370040894,0,3.00000010611257e-06,-4.20511842589749,16,19.5676032551208,3.67394031065145e-22,19.5676032551208,-553.784729003906,51.9499969482422,0
10.5249102115631,-15.6199998855591,-8.5477819442749,93,102.300437927246,-5.94000005722046,11.4809370040894,0,3.00000010611257e-06,-4.13650825140233,16,19.4975265678489,3.67394031065145e-22,19.4975265678489,-553.784729003906,51.9499969482422,0
10.6004493236542,-15.0199995040894,-8.5477819442749,93,102.300437927246,-7,11.4809370040894,0,3.00000010611257e-06,-3.96360031051274,16,19.3201996787206,3.67394031065145e-22,19.3201996787206,-553.784729003906,51.44010364309,0
10.6265866756439,-15.0299997329712,-8.5477819442749,93,102.300437927246,-7,11.4809370040894,0,3.00000010611257e-06,-3.90766377377222,16,19.2667322954546,3.67394031065145e-22,19.2667322954546,-553.784729003906,51.439998626709,0
10.7137899398804,-14.4399995803833,-8.5477819442749,93,102.300437927246,-7.96999979019165,11.4809370040894,0,3.00000010611257e-06,-3.69148741192534,16,19.0557369610586,3.67394031065145e-22,19.0557369610586,-493.743461830441,50.9405646520625,0
10.8114240169525,-13.8599996566772,-8.5477819442749,92,102.300437927246,-8.80999946594238,11.4809370040894,0,3.00000010611257e-06,-3.50451864122754,16,18.8907278183148,3.67394031065145e-22,18.8907278183148,-493.675415039063,50.4700720717324,0
10.8310902118683,-13.8599996566772,-11.755578994751,92,101.035842895508,-8.80999946594238,9.07413196563721,0,3.00000010611257e-06,-3.43914764906099,16,18.8329351036143,3.67394031065145e-22,18.8329351036143,-493.675415039063,50.4699974060059,0
10.8720545768738,-13.1899995803833,-11.755578994751,92,101.035842895508,-9.59999942779541,9.07413196563721,0,3.00000010611257e-06,-3.33021823272247,16,18.735237734988,3.67394031065145e-22,18.735237734988,-439.813733639006,50.0423981405202,0
10.9447019100189,-13.210000038147,-11.755578994751,92,101.035842895508,-9.59000015258789,9.07413196563721,0,3.00000010611257e-06,-3.21733973265736,16,18.6435787821023,3.67394031065145e-22,18.6435787821023,-439.511291503906,50.0399971008301,0
10.9939761161804,-12.6199998855591,-11.755578994751,92,101.035842895508,-10.25,9.07413196563721,0,3.00000010611257e-06,-3.12106343597089,16,18.5637007458683,3.67394031065145e-22,18.5637007458683,-439.511291503906,49.641932725439,0
11.0513834953308,-12.6399993896484,-11.755578994751,92,101.035842895508,-10.25,9.07413196563721,0,3.00000010611257e-06,-3.00821583688824,16,18.4698800851745,3.67394031065145e-22,18.4698800851745,-439.511291503906,49.6399993896484,0
11.0823812484741,-12.039999961853,-11.755578994751,92,101.035842895508,-10.7299995422363,9.07413196563721,0,3.00000010611257e-06,-2.93074128879546,16,18.4058178422156,3.67394031065145e-22,18.4058178422156,-396.265169364001,49.290717574384,0
11.135201215744,-12.0599994659424,-11.755578994751,92,101.035842895508,-10.7299995422363,9.07413196563721,0,3.00000010611257e-06,-2.83888946979832,16,18.3273592437215,3.67394031065145e-22,18.3273592437215,-396.175964355469,49.2899971008301,0
11.191552400589,-11.6199998855591,-11.755578994751,91,101.035842895508,-11.0900001525879,9.07413196563721,0,3.00000010611257e-06,-2.77895211131932,16,18.2721723339689,3.67394031065145e-22,18.2721723339689,-396.175964355469,48.9915500867179,0
11.2316732406616,-11.6300001144409,-13.311559677124,91,99.2504730224609,-11.0900001525879,3.75060415267944,0,3.00000010611257e-06,-2.70820454481151,16,18.2061061821767,3.67394031065145e-22,18.2061061821767,-396.175964355469,48.9899978637695,0
11.2696454524994,-11.2199993133545,-13.311559677124,91,99.2504730224609,-11.3400001525879,3.75060415267944,0,3.00000010611257e-06,-2.63319352661941,16,18.1337856066803,3.67394031065145e-22,18.1337856066803,-355.122181932869,48.7429986954375,0
11.3463141918182,-10.8400001525879,-13.311559677124,91,99.2504730224609,-11.5,3.75060415267944,0,3.00000010611257e-06,-2.52198447205182,16,18.0390759907059,3.67394031065145e-22,18.0390759907059,-354.623413085938,48.541258040896,0
11.4177799224854,-10.8400001525879,-13.311559677124,91,99.2504730224609,-11.5,3.75060415267944,0,3.00000010611257e-06,-2.4163670593668,16,17.9593928640058,3.67394031065145e-22,17.9593928640058,-354.623413085938,48.5399971008301,0
11.4748241901398,-10.3599996566772,-13.311559677124,91,99.2504730224609,-11.5599994659424,3.75060415267944,0,3.00000010611257e-06,-2.31941157239691,16,17.8851769978839,3.67394031065145e-22,17.8851769978839,-340.965139041271,48.3946954482708,0
11.5443723201752,-10.3599996566772,-13.311559677124,91,99.2504730224609,-11.5599994659424,3.75060415267944,0,3.00000010611257e-06,-2.21253217411877,16,17.8217153135367,3.67394031065145e-22,17.8217153135367,-340.523712158203,48.3899993896484,0
11.6127872467041,-9.84000015258789,-13.311559677124,91,99.2504730224609,-11.5999994277954,3.75060415267944,0,3.00000010611257e-06,-2.1013835080983,16,17.7528923438553,3.67394031065145e-22,17.7528923438553,-340.523712158203,48.2900417291439,0
11.6263465881348,-9.84000015258789,-13.311559677124,90,99.2504730224609,-11.5999994277954,3.75060415267944,0,3.00000010611257e-06,-2.07466962713492,16,17.7376224140027,3.67394031065145e-22,17.7376224140027,-301.422482215445,48.2201500395108,0
11.6863205432892,-9.28999996185303,-12.5301122665405,90,95.5866928100586,-11.5500001907349,-1.52158379554749,0,3.00000010611257e-06,-1.94465426133393,16,17.6686337304597,3.67394031065145e-22,17.6686337304597,-301.337036132813,48.2199974060059,0
11.7267458438873,-9.28999996185303,-12.5301122665405,90,95.5866928100586,-11.5500001907349,-1.52158379554749,0,3.00000010611257e-06,-1.89979571900774,16,17.647880078079,3.67394031065145e-22,17.647880078079,-301.337036132813,48.2199974060059,0
11.7881197929382,-8.53999996185303,-12.5301122665405,90,95.5866928100586,-11.5099992752075,-1.52158379554749,0,3.00000010611257e-06,-1.7562286068666,16,17.6023042383262,3.67394031065145e-22,17.6023042383262,-301.337036132813,48.1900211352692,0
11.819043636322,-8.53999996185303,-12.5301122665405,90,95.5866928100586,-11.5099992752075,-1.52158379554749,0,3.00000010611257e-06,-1.66980108269068,16,17.5758145954176,3.67394031065145e-22,17.5758145954176,-301.337036132813,48.189998626709,0
11.8985261917114,-7.6399998664856,-12.5301122665405,90,95.5866928100586,-11.4799995422363,-1.52158379554749,0,3.00000010611257e-06,-1.50221214018047,16,17.5203217416486,3.67394031065145e-22,17.5203217416486,-287.618427138618,48.1802194696229,0
11.9255332946777,-7.6399998664856,-12.5301122665405,90,95.5866928100586,-11.4799995422363,-1.52158379554749,0,3.00000010611257e-06,-1.46322741059457,16,17.5104406505826,3.67394031065145e-22,17.5104406505826,-287.310974121094,48.1800103619906,0
11.9984118938446,-6.87999963760376,-12.5301122665405,90,95.5866928100586,-11.3499994277954,-1.52158379554749,0,3.00000010611257e-06,-1.32401529920912,16,17.4682801431226,3.67394031065145e-22,17.4682801431226,-287.310974121094,48.1999721597909,0
12.0180516242981,-6.87999963760376,-12.5301122665405,90,95.5866928100586,-11.3499994277954,-1.52158379554749,0,3.00000010611257e-06,-1.29405320757292,16,17.4572625508594,3.67394031065145e-22,17.4572625508594,-287.310974121094,48.2000007629395,0
12.0762860774994,-6.15999984741211,-13.1601428985596,90,92.3707580566406,-11.1099996566772,-5.52752494812012,0,3.00000010611257e-06,-1.18041816719209,16,17.4298165978209,3.67394031065145e-22,17.4298165978209,-278.276044710788,48.2399414134442,0
12.1141705513,-6.15000009536743,-13.1601428985596,90,92.3707580566406,-11.1099996566772,-5.52752494812012,0,3.00000010611257e-06,-1.10767102083032,16,17.4150986134772,3.67394031065145e-22,17.4150986134772,-278.263275146484,48.2399978637695,0
12.1905150413513,-5.32999992370605,-13.1601428985596,90,92.3707580566406,-10.8800001144409,-5.52752494812012,0,3.00000010611257e-06,-1.0035068483626,16,17.4029783205652,3.67394031065145e-22,17.4029783205652,-278.263275146484,48.3097828101644,0
12.2239184379578,-5.31999969482422,-13.1601428985596,90,92.3707580566406,-10.8800001144409,-5.52752494812012,0,3.00000010611257e-06,-0.925015411788358,16,17.3902511902704,3.67394031065145e-22,17.3902511902704,-278.263275146484,48.3099975585938,0
12.2741947174072,-4.56999969482422,-13.1601428985596,90,92.3707580566406,-10.5699996948242,-5.52752494812012,0,3.00000010611257e-06,-0.842573845386505,16,17.3745413794019,3.67394031065145e-22,17.3745413794019,-254.975451207179,48.4089545634943,0
12.2999291419983,-4.56999969482422,-13.1601428985596,90,92.3707580566406,-10.5699996948242,-5.52752494812012,0,3.00000010611257e-06,-0.790348315221844,16,17.3686000297908,3.67394031065145e-22,17.3686000297908,-254.729461669922,48.4099998474121,0
12.4017097949982,-3.94999980926514,-13.1601428985596,90,92.3707580566406,-10.1999998092651,-5.52752494812012,0,3.00000010611257e-06,-0.646924622030102,16,17.3463385117139,3.67394031065145e-22,17.3463385117139,-254.729461669922,48.5395995473087,0
12.4515874385834,-3.93999981880188,-10.3722047805786,90,89.173225402832,-10.1999998092651,-8.87943553924561,0,3.00000010611257e-06,-0.568178269831224,16,17.3369791319496,3.67394031065145e-22,17.3369791319496,-238.535045466253,48.6986356624739,0
12.5013353824615,-3.07999992370605,-10.3722047805786,90,89.173225402832,-9.82999992370605,-8.87943553924561,0,3.00000010611257e-06,-0.484008020606348,16,17.3353127816811,3.67394031065145e-22,17.3353127816811,-238.395690917969,48.7000007629395,0
12.5196850299835,-3.07999992370605,-10.3722047805786,90,89.173225402832,-9.82999992370605,-8.87943553924561,0,3.00000010611257e-06,-0.434075008884279,16,17.3299240822875,3.67394031065145e-22,17.3299240822875,-238.395690917969,48.7000007629395,0
12.5869834423065,-2.3199999332428,-10.3722047805786,89,89.173225402832,-9.44999980926514,-8.87943553924561,0,3.00000010611257e-06,-0.298116237704009,16,17.3220761837218,3.67394031065145e-22,17.3220761837218,-238.395690917969,48.8662738618388,0
12.6325483322144,-2.30999994277954,-10.3722047805786,89,89.173225402832,-9.44999980926514,-8.87943553924561,0,3.00000010611257e-06,-0.259420523755041,16,17.3202502862408,3.67394031065145e-22,17.3202502862408,-238.395690917969,48.8699989318848,0
12.7020156383514,-1.41999995708466,-10.3722047805786,89,89.173225402832,-8.9399995803833,-8.87943553924561,0,3.00000010611257e-06,-0.0977175927692723,16,17.3186037595082,3.67394031065145e-22,17.3186037595082,-235.032522536001,49.0531493010086,0
12.7136797904968,-1.41999995708466,-10.3722047805786,89,89.173225402832,-8.9399995803833,-8.87943553924561,0,3.00000010611257e-06,-0.0552670590404161,16,17.3182118107584,3.67394031065145e-22,17.3182118107584,-234.906768798828,49.0599975585938,0
12.7888097763062,-0.25,-8.51842021942139,89,85.9498748779297,-8.42999935150146,-11.3893775939941,0,3.00000010611257e-06,0.0853422363678046,16,17.3325997582759,3.67394031065145e-22,17.3325997582759,-234.906768798828,49.2798727303291,0
